City_ID,City,Lat,Lng,Max Temp,Humidity,Cloudiness,Wind Speed,Country,Date
0,waitangi,-43.9535,-176.5597,9.9,86,96,2.68,NZ,1692926220
1,manokwari,-0.8667,134.0833,28.1,73,100,2.6,ID,1692926221
2,bethel,41.3712,-73.414,20.86,88,100,0.0,US,1692926222
3,kapa'a,22.0752,-159.319,31.18,72,40,6.69,US,1692926223
4,balabac,7.9868,117.0645,29.24,68,28,1.08,PH,1692926225
5,port-aux-francais,-49.35,70.2167,6.24,93,100,18.26,TF,1692926225
6,ulety,51.3572,112.4849,14.93,77,66,0.8,RU,1692926226
7,vilyuchinsk,52.9306,158.4028,15.15,99,100,1.16,RU,1692926227
8,khanty-mansiysk,61.0042,69.0019,9.06,93,0,3.13,RU,1692926227
9,kingston,17.997,-76.7936,30.53,82,40,2.06,JM,1692926228
10,larkana,27.5551,68.2141,28.02,66,31,2.79,PK,1692926175
11,tiksi,71.6872,128.8694,10.86,54,100,6.9,RU,1692926229
12,grytviken,-54.2811,-36.5092,-3.03,80,11,4.17,GS,1692926230
13,wagar,16.1525,36.2032,33.05,43,27,4.53,SD,1692926231
14,kargasok,59.0556,80.8572,12.91,96,100,3.04,RU,1692926232
15,khandyga,62.6667,135.6,13.28,59,45,1.4,RU,1692926232
16,rio grande,-32.035,-52.0986,7.19,62,6,2.06,BR,1692926233
17,iqaluit,63.7506,-68.5145,3.85,93,100,3.09,CA,1692926234
18,puerto natales,-51.7236,-72.4875,0.01,77,100,3.49,CL,1692926235
19,adamstown,-25.066,-130.1015,19.01,58,100,8.26,PN,1692926235
20,moranbah,-22.0016,148.0466,23.83,45,0,7.71,AU,1692926236
21,margaret river,-33.95,115.0667,13.98,76,0,2.21,AU,1692926237
22,rameswaram,9.2833,79.3,27.59,78,100,10.29,IN,1692926237
23,avarua,-21.2078,-159.775,27.03,69,75,7.2,CK,1692926238
24,anaconda,46.1285,-112.9423,25.55,32,30,3.29,US,1692926239
25,banfora,10.6333,-4.7667,24.79,80,71,1.5,BF,1692926239
26,porto novo,6.4965,2.6036,24.67,92,100,1.35,BJ,1692926240
27,konosha,60.9736,40.257,8.62,74,100,1.61,RU,1692926240
28,albany,42.6001,-73.9662,18.08,94,100,2.24,US,1692926227
29,emerald,-23.5333,148.1667,23.62,47,8,4.21,AU,1692926242
30,west island,-12.1568,96.8225,25.99,73,40,5.14,CC,1692926243
31,yelizovo,53.1873,158.3805,15.08,100,100,2.0,RU,1692926244
32,walvis bay,-22.9575,14.5053,12.27,90,2,2.37,NA,1692926245
33,talnakh,69.4865,88.3972,15.67,95,100,4.5,RU,1692926246
34,quatre cocos,-20.2078,57.7625,23.38,74,80,7.98,MU,1692926246
35,newman,37.3138,-121.0208,36.68,24,13,2.68,US,1692926247
36,shahrak,34.1074,64.3052,10.0,49,0,2.4,AF,1692926248
37,shenjiamen,29.9576,122.298,27.51,80,100,2.22,CN,1692926248
38,benguela,-12.5763,13.4055,20.97,89,46,0.65,AO,1692926249
39,stanley,54.868,-1.6985,10.43,89,0,3.09,GB,1692926068
40,nova sintra,14.8667,-24.7167,24.12,76,61,3.96,CV,1692926175
41,arno,60.1167,18.6333,16.55,91,100,1.02,SE,1692926251
42,nuuk,64.1835,-51.7216,7.34,100,100,2.06,GL,1692926252
43,tralee,52.2704,-9.7026,13.84,92,100,3.36,IE,1692926042
44,smithers,54.7804,-127.1743,24.18,41,40,2.06,CA,1692926172
45,masumbwe,-3.6333,32.1833,21.54,44,1,3.25,TZ,1692926254
46,fortuna,40.5982,-124.1573,22.18,73,0,3.6,US,1692926254
47,celestun,20.8667,-90.4,28.28,74,84,6.2,MX,1692926255
48,puerto ayora,-0.7393,-90.3518,24.19,91,100,0.45,EC,1692926256
49,port mathurin,-19.6833,63.4167,22.56,65,50,9.7,MU,1692926256
50,karratha,-20.7377,116.8463,26.34,24,0,7.35,AU,1692926257
51,otjiwarongo,-20.4637,16.6477,17.0,11,0,3.75,NA,1692926258
52,udachny,66.4167,112.4,20.25,59,34,7.13,RU,1692926258
53,atar,20.5169,-13.0499,31.12,46,100,1.5,MR,1692926259
54,nemuro,43.3236,145.575,20.23,96,88,1.19,JP,1692926260
55,afaahiti,-17.75,-149.2833,26.93,75,0,5.4,PF,1692926260
56,edinburgh of the seven seas,-37.0676,-12.3116,13.55,88,100,9.02,SH,1692926261
57,ushuaia,-54.8,-68.3,-3.19,93,100,12.35,AR,1692926262
58,sitka,57.0531,-135.33,16.94,67,100,4.63,US,1692926262
59,yung shue wan,22.2333,114.1167,31.3,83,92,1.09,HK,1692926263
60,carnot,4.9409,15.8665,20.9,98,93,1.03,CF,1692926264
61,keflavik,64.0049,-22.5624,10.24,100,0,2.57,IS,1692926264
62,kourou,5.1552,-52.6478,25.03,87,79,3.03,GF,1692926265
63,vorgashor,67.5833,63.95,6.67,97,100,6.25,RU,1692926266
64,hanceville,34.0607,-86.7675,30.3,57,21,0.46,US,1692926267
65,vorkuta,67.5,64.0,6.86,97,100,6.26,RU,1692926268
66,bilibino,68.0546,166.4372,11.52,45,100,0.89,RU,1692926268
67,turpan,42.9333,89.1667,31.7,20,1,2.4,CN,1692926269
68,bredasdorp,-34.5322,20.0403,7.04,90,7,2.46,ZA,1692926270
69,enewetak,11.3474,162.3373,28.47,76,100,3.42,MH,1692926270
70,thompson,55.7435,-97.8558,13.09,82,100,2.06,CA,1692926271
71,oranjemund,-28.55,16.4333,11.28,91,0,1.88,NA,1692926272
72,yellowknife,62.456,-114.3525,22.45,60,75,4.12,CA,1692926046
73,aioun,16.6614,-9.6149,28.51,52,100,3.09,MR,1692926273
74,basco,20.4487,121.9702,28.93,76,100,9.07,PH,1692926274
75,shimoda,34.6667,138.95,30.2,72,0,1.91,JP,1692926274
76,sitia,35.2,26.0986,27.77,67,0,5.91,GR,1692926275
77,mucuri,-18.0864,-39.5508,24.09,87,2,6.34,BR,1692926250
78,utrik,11.2278,169.8474,28.21,76,93,5.87,MH,1692926276
79,nar'yan-mar,67.6713,53.087,6.34,93,100,4.78,RU,1692926277
80,egersund,58.4513,5.9997,13.38,88,100,6.09,NO,1692926277
81,las heras,-46.5419,-68.9359,3.22,58,2,5.73,AR,1692926278
82,yeraliyev,43.2,51.65,24.04,68,16,2.67,KZ,1692926279
83,aasiaat,68.7098,-52.8699,4.27,88,100,6.73,GL,1692926281
84,alice springs,-23.7,133.8833,19.75,18,0,5.14,AU,1692926281
85,isafjordur,66.0755,-23.124,12.82,59,0,1.94,IS,1692926282
86,itoman,26.1247,127.6694,31.21,76,75,2.57,JP,1692926284
87,chinde,26.8418,88.0763,17.91,97,100,1.91,NP,1692926286
88,hithadhoo,-0.6,73.0833,28.06,72,74,4.96,MV,1692926287
89,ghadamis,30.1337,9.5007,26.66,34,0,4.26,LY,1692926288
90,souillac,-20.5167,57.5167,23.21,73,40,5.66,MU,1692926289
91,longyearbyen,78.2186,15.6401,7.91,87,75,4.63,SJ,1692926289
92,college,64.8569,-147.8028,22.18,72,100,2.06,US,1692926290
93,ust-nera,64.5667,143.2,9.55,69,100,2.25,RU,1692926291
94,touros,-5.1989,-35.4608,24.86,85,10,5.82,BR,1692926292
95,tazacorte,28.629,-17.9293,26.75,66,0,4.12,ES,1692926292
96,macapa,0.0389,-51.0664,27.99,78,0,2.57,BR,1692926294
97,carnarvon,-24.8667,113.6333,20.93,57,0,4.66,AU,1692926295
98,bikenibeu village,1.3673,173.1241,31.98,66,20,2.06,KI,1692926296
99,laojunmiao,39.8333,97.7333,19.9,28,28,4.66,CN,1692926297
100,atafu village,-8.5421,-172.5159,27.96,79,30,5.98,TK,1692926298
101,tengrela,10.4869,-6.4097,23.45,87,99,1.2,CI,1692926298
102,island harbour,50.724,-1.2758,14.54,89,100,0.89,GB,1692926299
103,blackmans bay,-43.0167,147.3167,12.07,85,54,4.94,AU,1692926300
104,broken hill,-31.95,141.4333,18.06,26,100,2.04,AU,1692926301
105,kerikeri,-35.2268,173.9474,14.95,77,98,0.45,NZ,1692926302
106,labrador city,52.9463,-66.9114,9.94,88,72,2.95,CA,1692926303
107,pyt-yakh,60.7499,72.8582,7.7,82,21,2.49,RU,1692926304
108,bubaque,11.2833,-15.8333,27.19,83,100,3.79,GW,1692926300
109,kapuskasing,49.4169,-82.4331,17.05,94,75,1.03,CA,1692926305
110,sacaba,20.5833,-89.9833,29.05,62,100,3.12,MX,1692926307
111,adigrat,14.277,39.462,17.14,64,98,0.64,ET,1692926308
112,tchibanga,-2.85,11.0333,20.62,89,100,1.19,GA,1692926308
113,saudarkrokur,65.7461,-19.6394,12.45,59,0,3.51,IS,1692926309
114,constantia,44.1833,28.65,21.5,81,16,2.02,RO,1692926310
115,westport,41.1415,-73.3579,22.26,82,100,4.12,US,1692926310
116,sur,22.5667,59.5289,31.57,56,54,2.35,OM,1692926311
117,helena valley southeast,46.6153,-111.9216,26.63,34,0,3.58,US,1692926312
118,shingu,33.7333,135.9833,28.46,73,9,2.07,JP,1692926313
119,pathein,16.7833,94.7333,25.47,91,93,3.25,MM,1692926313
120,novyy urgal,51.0736,132.5642,19.54,72,100,0.87,RU,1692926314
121,port augusta,-32.5,137.7667,21.29,25,58,5.2,AU,1692926315
122,tual,-5.6667,132.75,25.63,86,59,8.52,ID,1692926315
123,aswan,24.0934,32.907,33.61,16,0,3.6,EG,1692926318
124,saddiqabad,28.3062,70.1307,26.78,73,87,4.85,PK,1692926319
125,tamanrasset,22.785,5.5228,26.95,17,20,1.54,DZ,1692926319
126,tolanaro,-25.0319,46.9987,19.15,95,31,3.86,MG,1692926320
127,klyuchi,52.2667,79.1667,19.34,73,100,0.32,RU,1692926321
128,kruisfontein,-34.0033,24.7314,12.04,54,0,4.3,ZA,1692926321
129,georgetown,5.4112,100.3354,27.96,82,20,2.06,MY,1692926286
130,lluta,-16.0147,-72.0142,10.71,39,11,0.47,PE,1692926323
131,ishigaki,24.3448,124.1572,31.07,79,40,3.6,JP,1692926323
132,olyokminsk,60.3736,120.4264,16.72,42,7,1.02,RU,1692926324
133,taiping,4.85,100.7333,29.16,88,8,0.73,MY,1692926325
134,alexandria,31.2156,29.9553,26.9,74,0,3.66,EG,1692926094
135,jamestown,42.097,-79.2353,24.77,86,100,5.14,US,1692926278
136,fernley,39.608,-119.2518,29.76,17,63,1.79,US,1692926327
137,kunming,25.0389,102.7183,16.96,100,100,2.0,CN,1692926327
138,drahichyn,52.1874,25.1597,15.55,74,91,0.49,BY,1692926328
139,tazovsky,67.4667,78.7,6.67,88,6,5.43,RU,1692926329
140,coquimbo,-29.9533,-71.3436,13.85,76,0,0.51,CL,1692926045
141,laguna,38.421,-121.4238,36.41,42,0,8.23,US,1692926330
142,saipan,15.1355,145.701,30.39,100,75,3.09,MP,1692926331
143,mount pearl,47.5166,-52.7813,14.62,95,100,2.06,CA,1692926332
144,sao joaquim,-28.2939,-49.9317,7.24,97,100,1.7,BR,1692926333
145,wailua homesteads,22.0669,-159.378,30.44,72,40,6.69,US,1692926334
146,ritchie,-29.038,24.6028,14.86,18,100,4.09,ZA,1692926334
147,grand falls-windsor,48.9332,-55.6649,14.17,89,14,2.87,CA,1692926335
148,invercargill,-46.4,168.35,13.34,80,44,1.34,NZ,1692926335
149,galliano,29.4422,-90.2992,32.0,79,0,1.54,US,1692926103
150,montmagny,48.9734,2.3469,21.36,92,0,1.54,FR,1692926337
151,la ronge,55.1001,-105.2842,16.14,77,100,3.09,CA,1692926338
152,buala,-8.145,159.5921,27.59,80,80,6.78,SB,1692926338
153,lebu,-37.6167,-73.65,7.18,82,16,2.54,CL,1692926339
154,urengoy,65.9667,78.3667,7.11,85,14,3.98,RU,1692926340
155,arraial do cabo,-22.9661,-42.0278,23.91,74,100,4.96,BR,1692926340
156,sao jose da coroa grande,-8.8978,-35.1478,24.24,81,10,3.69,BR,1692926341
157,ebolowa,2.9,11.15,21.13,97,100,1.13,CM,1692926342
158,holualoa,19.6228,-155.9522,25.91,80,75,4.63,US,1692926342
159,cole harbour,44.6724,-63.4751,17.71,82,0,0.0,CA,1692926343
160,plymouth,41.8334,-70.8328,19.84,74,100,0.0,US,1692926344
161,nacala,-14.5428,40.6728,20.41,92,32,1.6,MZ,1692926345
162,guerrero negro,27.9769,-114.0611,21.88,76,13,8.32,MX,1692926345
163,olonkinbyen,70.9221,-8.7187,5.62,83,1,3.68,SJ,1692926347
164,songyuan,45.1171,124.8568,20.56,70,51,3.63,CN,1692926348
165,tura,25.5198,90.2201,23.54,98,100,1.83,IN,1692926349
166,ilulissat,69.2167,-51.1,6.01,93,100,0.51,GL,1692926349
167,ola,59.5833,151.2833,12.86,80,100,3.78,RU,1692926350
168,chul'man,56.8479,124.9104,12.52,48,6,1.65,RU,1692926351
169,mount isa,-20.7333,139.5,26.87,21,0,5.66,AU,1692926351
170,east london,-33.0153,27.9116,16.53,69,100,5.33,ZA,1692926352
171,sinabang,2.4803,96.3801,26.77,80,73,0.13,ID,1692926305
172,mamboma,8.0833,-11.6833,23.02,99,100,0.23,SL,1692926354
173,lihue,21.9789,-159.3672,30.77,64,40,6.69,US,1692926301
174,arteche,12.2645,125.4048,28.66,75,100,2.56,PH,1692926355
175,aykhal,66.0,111.5,18.42,60,55,7.59,RU,1692926356
176,hood river,45.7054,-121.5215,31.57,28,0,4.92,US,1692926356
177,nizhnyaya omka,55.4338,74.9426,10.3,81,6,2.49,RU,1692926357
178,hamamatsu,34.7,137.7333,32.23,65,12,0.45,JP,1692926314
179,anadyr,64.75,177.4833,13.28,38,0,5.0,RU,1692926358
180,rongelap,11.1635,166.8941,28.39,75,92,5.23,MH,1692926359
181,taltal,-25.4,-70.4833,16.42,78,0,2.93,CL,1692926360
182,terbanggi besar,-4.8667,105.2333,26.5,78,9,3.1,ID,1692926360
183,punta arenas,-53.15,-70.9167,-1.36,67,9,8.31,CL,1692926361
184,thunder bay,48.4001,-89.3168,20.99,83,39,2.57,CA,1692926362
185,bhum,18.4667,75.6667,22.95,81,94,3.44,IN,1692926363
186,wuhai,39.6647,106.8122,21.96,39,100,2.75,CN,1692926364
187,gilgit,35.9221,74.3087,20.71,78,100,0.94,PK,1692926365
188,shibetsu,43.659,145.132,29.39,84,75,1.54,JP,1692926366
189,kuta,-8.7233,115.1723,26.97,78,40,7.2,ID,1692926366
190,lamu,-2.2717,40.902,24.12,84,5,5.57,KE,1692926367
191,achit,56.7985,57.8994,7.5,78,100,2.29,RU,1692926368
192,dame-marie,18.5667,-74.4167,27.66,81,100,2.64,HT,1692926368
193,da nang,16.0678,108.2208,31.99,58,20,1.03,VN,1692926369
194,geraldton,-28.7667,114.6,15.23,72,100,2.57,AU,1692926370
195,maloye ganyushkino,46.6,49.2667,20.03,46,2,3.61,KZ,1692926371
196,port lincoln,-34.7333,135.8667,17.1,58,69,1.98,AU,1692926371
197,al jawf,29.5,38.75,28.09,23,1,5.42,SA,1692926372
198,hawaiian paradise park,19.5933,-154.9731,27.73,74,75,5.66,US,1692926373
199,nantucket,41.2835,-70.0995,20.01,66,100,5.66,US,1692926200
200,ribeira grande,38.5167,-28.7,21.54,85,56,5.81,PT,1692926374
201,dudinka,69.4058,86.1778,15.9,96,100,5.21,RU,1692926375
202,chui,-33.6971,-53.4616,7.92,79,84,2.49,UY,1692926144
203,katsuura,35.1333,140.3,28.88,74,1,3.18,JP,1692926376
204,bratsk,56.1325,101.6142,17.27,70,1,1.86,RU,1692926377
205,yasnyy,51.0333,59.8742,13.57,53,86,1.3,RU,1692926378
206,hinton,53.4001,-117.5857,11.5,89,100,0.97,CA,1692926378
207,ust'-ordynskiy,52.805,104.7508,17.17,65,4,3.28,RU,1692926379
208,slawharad,53.4446,31.0014,12.45,94,81,1.48,BY,1692926380
209,shizuishan,39.2333,106.7694,21.55,46,100,2.14,CN,1692926382
210,ilebo,-4.3167,20.5833,24.12,78,93,0.87,CD,1692926382
211,fuling,29.7022,107.3919,24.52,91,100,0.51,CN,1692926383
212,fort st. john,56.2499,-120.8529,21.94,40,0,4.63,CA,1692926384
213,kzyltu,53.6364,72.3414,12.07,62,100,3.52,KZ,1692926384
214,pahrump,36.2083,-115.9839,35.03,31,11,1.79,US,1692926385
215,chos malal,-37.3781,-70.2709,2.73,70,50,2.59,AR,1692926386
216,puerto lempira,15.2667,-83.7667,25.31,93,100,2.53,HN,1692926386
217,cabo san lucas,22.8909,-109.9124,33.67,66,0,5.14,MX,1692926371
218,lagunas,-5.2269,-75.6753,27.25,58,15,1.01,PE,1692926388
219,fort saskatchewan,53.7168,-113.2187,20.38,72,67,4.47,CA,1692926388
220,shats'k,51.5021,23.9381,19.23,56,100,1.77,UA,1692926389
221,vadso,70.0744,29.7487,10.49,93,100,4.12,NO,1692926390
222,boyolangu,-8.1181,111.8935,25.34,73,42,3.61,ID,1692926391
223,borogontsy,62.6683,131.1683,14.64,49,36,3.18,RU,1692926391
224,awjilah,29.1081,21.2869,31.25,27,5,1.56,LY,1692926392
225,boende,-0.2167,20.8667,21.99,97,100,1.07,CD,1692926393
226,novosilikatnyy,53.3097,83.6239,20.32,64,0,5.0,RU,1692926394
227,acapulco de juarez,16.8634,-99.8901,29.9,70,75,2.57,MX,1692926110
228,port saint john's,-31.6229,29.5448,17.25,80,100,4.91,ZA,1692926395
229,micheweni,-4.9667,39.8333,24.3,83,14,5.17,TZ,1692926396
230,acarau,-2.8856,-40.12,25.38,84,2,6.32,BR,1692926396
231,agapovka,53.2973,59.1348,9.41,71,10,1.53,RU,1692926397
232,tomatlan,19.9333,-105.25,27.46,80,100,1.55,MX,1692926397
233,al kharijah,25.4514,30.5464,31.02,23,0,8.9,EG,1692926398
234,chibougamau,49.9168,-74.3659,14.94,87,100,2.52,CA,1692926240
235,isla mujeres,21.2311,-86.731,29.03,84,99,4.56,MX,1692926399
236,arkhangel'sk,64.5401,40.5433,8.81,90,100,1.87,RU,1692926401
237,bodo,67.28,14.405,12.02,98,100,1.03,NO,1692926402
238,kayyerkan,69.3786,87.7439,15.72,100,100,4.0,RU,1692926406
239,morehead city,34.7229,-76.726,28.0,71,0,3.58,US,1692926407
240,box elder,41.5005,-112.8764,28.48,47,0,2.75,US,1692926408
241,papatowai,-46.5619,169.4708,13.22,70,12,0.58,NZ,1692926409
242,north battleford,52.7834,-108.2847,16.34,68,99,5.18,CA,1692926409
243,qaqortoq,60.7167,-46.0333,8.13,95,100,0.55,GL,1692926411
244,urangan,-25.3,152.9,20.66,70,16,6.88,AU,1692926412
245,dryden,49.7833,-92.7503,18.27,91,6,1.04,CA,1692926412
246,crane,31.3974,-102.3501,32.64,26,39,6.42,US,1692926413
247,fort mcmurray,56.7268,-111.381,20.77,45,13,4.12,CA,1692926414
248,hadibu,12.65,54.0333,26.22,80,98,7.74,YE,1692926415
249,mckinleyville,40.9465,-124.1006,21.55,73,75,0.0,US,1692926416
250,kailua-kona,19.6406,-155.9956,27.98,79,75,4.63,US,1692926417
251,kamaishi,39.2667,141.8833,29.68,71,0,4.96,JP,1692926418
252,nadym,65.5333,72.5167,6.34,93,14,7.53,RU,1692926418
253,northam,51.0333,-4.2167,18.5,84,100,4.17,GB,1692926419
254,gadzhiyevo,69.2551,33.3362,6.16,85,98,0.59,RU,1692926420
255,marsabit,2.3284,37.9899,17.08,72,0,8.84,KE,1692926420
256,mogocha,53.7333,119.7667,16.04,54,95,0.87,RU,1692926421
257,maragogi,-9.0122,-35.2225,23.92,82,13,3.57,BR,1692926422
258,mahanoro,-19.9,48.8,19.31,92,1,2.15,MG,1692926422
259,talara,-4.5772,-81.2719,22.42,83,0,6.75,PE,1692926423
260,bemidji,47.4736,-94.8803,23.27,89,0,1.54,US,1692926404
261,sidi khaled,34.387,4.9879,31.08,22,0,3.97,DZ,1692926425
262,el tarf,36.7672,8.3138,22.87,54,0,1.41,DZ,1692926425
263,ocos,14.5094,-92.1933,27.1,78,100,3.34,GT,1692926426
264,midvagur,62.0511,-7.1939,12.46,82,75,3.6,FO,1692926427
265,mount gambier,-37.8333,140.7667,14.71,77,92,2.83,AU,1692926427
266,bosaso,11.2842,49.1816,33.89,38,94,7.75,SO,1692926428
267,nishinoomote,30.7333,131.0,29.31,89,75,3.09,JP,1692926429
268,forster,-32.1667,152.5167,19.65,58,0,2.38,AU,1692926430
269,tataouine,32.9297,10.4518,26.14,52,0,1.49,TN,1692926431
270,raduzhny,62.0961,77.475,8.73,78,21,1.69,RU,1692926432
271,seymour,38.9592,-85.8903,30.05,85,23,4.13,US,1692926433
272,flying fish cove,-10.4217,105.6791,24.82,83,100,5.66,CX,1692926434
273,mana,5.6592,-53.7767,25.75,90,33,3.14,GF,1692926434
274,mandalgovi,45.7625,106.2708,14.24,48,100,2.65,MN,1692926435
275,streator,41.1209,-88.8354,32.06,85,10,5.95,US,1692926392
276,petropavlovsk-kamchatsky,53.0452,158.6483,14.33,100,100,2.0,RU,1692926436
277,campo gallo,-26.5833,-62.85,15.36,30,0,2.97,AR,1692926438
278,lastra a signa,43.7714,11.1028,27.52,62,0,1.03,IT,1692926439
279,kurchatov,51.6601,35.6521,12.76,84,71,2.13,RU,1692926440
280,fort bragg,35.139,-79.006,29.34,64,0,2.57,US,1692926441
281,inirida,3.8653,-67.9239,25.14,86,54,1.67,CO,1692926441
282,karungdong,5.8844,121.263,29.07,70,98,1.1,PH,1692926442
283,zeya,53.75,127.2667,19.01,51,6,2.7,RU,1692926443
284,kidal,18.4411,1.4078,34.53,24,25,3.4,ML,1692926290
285,vila velha,-20.3297,-40.2925,24.97,91,20,4.63,BR,1692926171
286,gorontalo,0.5412,123.0595,29.63,66,58,4.54,ID,1692926445
287,kavaratti,10.5669,72.642,27.6,75,82,4.07,IN,1692926445
288,mollendo,-17.0231,-72.0147,16.99,85,69,3.47,PE,1692926446
289,san ignacio,17.1561,-89.0714,25.08,94,75,5.14,BZ,1692926447
290,skikda,36.8762,6.9092,25.81,64,0,1.25,DZ,1692926223
291,kayangel,8.0823,134.7173,28.1,79,100,6.93,PW,1692926448
292,camrose,53.0168,-112.8353,17.73,70,58,4.6,CA,1692926449
293,hasaki,35.7333,140.8333,34.05,76,11,3.98,JP,1692926449
294,whitehorse,60.7161,-135.0538,24.43,30,75,2.06,CA,1692926450
295,saint-leu,-21.15,55.2833,20.46,62,0,0.99,RE,1692926451
296,cannonvale,-20.2833,148.7,22.66,66,0,8.03,AU,1692926452
297,zahedan,29.4963,60.8629,20.95,26,0,3.09,IR,1692926455
298,santa maria del oro,25.9333,-105.3667,25.62,50,99,5.91,MX,1692926456
299,vielha,42.6846,0.7726,16.5,56,18,1.88,ES,1692926456
300,copiapo,-27.3667,-70.3333,11.83,69,0,0.65,CL,1692926457
301,akureyri,65.6835,-18.0878,6.96,100,0,2.57,IS,1692926457
302,klaksvik,62.2266,-6.589,12.51,98,95,5.8,FO,1692926458
303,portage la prairie,49.9728,-98.2926,23.05,68,75,4.12,CA,1692926459
304,st. john's,47.5649,-52.7093,15.08,95,100,2.06,CA,1692926460
305,chonchi,-42.6128,-73.8092,3.95,94,39,1.23,CL,1692926460
306,junin de los andes,-39.9504,-71.0694,-2.11,86,5,3.16,AR,1692926461
307,valdivia,-39.8142,-73.2459,3.05,95,2,0.57,CL,1692926234
308,sambava,-14.2667,50.1667,20.26,88,13,4.25,MG,1692926463
309,kill devil hills,36.0307,-75.676,25.55,72,100,3.6,US,1692926463
310,woolgoolga,-30.1106,153.2007,20.02,65,0,2.83,AU,1692926464
311,shakawe,-18.3667,21.85,18.84,24,0,1.57,BW,1692926465
312,kyzyl-suu,42.3414,78.0056,15.81,44,0,2.62,KG,1692926465
313,al khums,32.6486,14.2619,26.03,75,0,3.46,LY,1692926466
314,san patricio,28.017,-97.5169,32.4,52,100,3.77,US,1692926467
315,kenai,60.5544,-151.2583,16.05,93,100,1.54,US,1692926468
316,ardmore,34.1743,-97.1436,35.7,40,0,2.06,US,1692926468
317,soio,-6.1349,12.3689,21.87,91,100,3.03,AO,1692926469
318,puerto aysen,-45.4,-72.7,3.82,99,99,2.1,CL,1692926470
319,dapa,9.7594,126.0531,28.4,72,100,1.96,PH,1692926470
320,lae,-6.7221,146.9847,24.71,88,98,0.29,PG,1692926471
321,fisterra,42.9049,-9.2629,20.42,89,81,5.35,ES,1692926472
322,sibut,5.718,19.0739,21.9,94,100,1.36,CF,1692926473
323,muisne,0.6,-80.0333,25.2,85,36,1.52,EC,1692926473
324,yatou,37.15,122.3833,26.43,64,0,4.18,CN,1692926474
325,bulgan,48.8125,103.5347,12.65,77,97,1.26,MN,1692926475
326,happy valley-goose bay,53.3168,-60.3315,13.17,82,75,1.03,CA,1692926475
327,owen sound,44.5672,-80.9435,20.64,97,88,0.89,CA,1692926476
328,hotan,37.0997,79.9269,23.93,33,100,0.99,CN,1692926477
329,naama,33.2667,-0.3167,25.03,39,0,2.91,DZ,1692926478
330,hermanus,-34.4187,19.2345,12.67,77,100,5.25,ZA,1692926478
331,al bardiyah,31.7561,25.0865,26.63,68,0,3.53,LY,1692926479
332,ataq,14.5377,46.8319,27.88,45,95,2.93,YE,1692926480
333,port alfred,-33.5906,26.891,15.89,66,100,3.35,ZA,1692926480
334,ribeira brava,32.65,-17.0667,26.18,43,100,1.19,PT,1692926481
335,lorengau,-2.0226,147.2712,27.67,81,16,2.56,PG,1692926482
336,praia da vitoria,38.7333,-27.0667,21.53,94,40,8.9,PT,1692926483
337,tancacha,-32.2431,-63.9807,11.79,48,77,1.98,AR,1692926483
338,dompu,-8.5356,118.4622,27.98,60,27,3.46,ID,1692926484
339,badger,64.8,-147.5333,22.14,68,100,2.06,US,1692926485
340,sao vicente,-23.9631,-46.3919,25.1,26,96,4.42,BR,1692926249
341,mar del plata,-38.0023,-57.5575,7.19,77,0,2.06,AR,1692926486
342,wanxian,30.8039,108.3897,23.61,93,100,2.15,CN,1692926487
343,menongue,-14.6585,17.691,16.11,22,6,1.93,AO,1692926488
344,alofi,-19.0595,-169.9187,25.94,73,75,5.14,NU,1692926488
345,presov,49.1667,21.25,16.32,78,21,0.9,SK,1692926489
346,port elizabeth,-33.918,25.5701,10.16,87,0,3.6,ZA,1692926490
347,amahai,-3.3333,128.9167,25.34,87,100,4.81,ID,1692926491
348,bintulu,3.1667,113.0333,28.23,89,20,1.03,MY,1692926491
349,okha,53.5739,142.9478,16.55,76,73,6.36,RU,1692926492
350,waldbuttelbrunn,49.7883,9.8467,19.4,90,99,2.88,DE,1692926493
351,brookings,44.3114,-96.7984,27.32,76,0,2.57,US,1692926494
352,powell river,49.8496,-124.5361,23.8,46,75,2.57,CA,1692926494
353,mulki,13.1,74.8,24.6,94,20,2.06,IN,1692926495
354,valle de la pascua,9.2155,-66.0073,24.4,88,74,0.48,VE,1692926496
355,male,4.1748,73.5089,27.97,78,75,4.63,MV,1692926496
356,greymouth,-42.4667,171.2,12.61,69,58,1.87,NZ,1692926497
357,praya,14.9215,-23.5087,27.3,74,20,1.03,CV,1692926498
358,speightstown,13.25,-59.65,28.34,73,100,1.06,BB,1692926499
359,prince rupert,54.3161,-130.3201,16.83,91,0,6.69,CA,1692926452
360,behompy,-23.2496,43.8557,19.85,49,0,2.23,MG,1692926500
361,prado,-17.3411,-39.2208,23.89,89,0,6.47,BR,1692926501
362,hiroshima,34.3963,132.4594,30.02,72,43,2.1,JP,1692926502
363,waingapu,-9.6567,120.2641,27.63,56,21,8.28,ID,1692926503
364,priargunsk,50.3691,119.1012,17.97,40,100,3.78,RU,1692926503
365,fale old settlement,-9.3852,-171.2468,28.02,78,12,6.37,TK,1692926504
366,chinju,35.1928,128.0847,26.9,72,86,0.87,KR,1692926505
367,port douglas,-16.4833,145.4667,23.79,68,6,8.11,AU,1692926506
368,asaita,11.5636,41.4394,31.29,49,100,4.19,ET,1692926507
369,ambodifotatra,-16.9833,49.85,22.86,79,59,2.62,MG,1692926508
370,ta`u,-14.2336,-169.5144,27.01,79,26,6.1,AS,1692926508
371,aral,40.5156,81.2636,25.58,26,0,1.78,CN,1692926509
372,saint-pierre,-21.3393,55.4781,18.82,59,0,3.09,RE,1692926510
373,el granada,37.5027,-122.4694,28.84,72,100,4.63,US,1692926510
374,buka,40.8108,69.1986,22.41,26,0,1.91,UZ,1692926511
375,odacho-oda,35.1833,132.5,32.43,80,74,1.67,JP,1692926512
376,vainode,56.4333,21.8667,11.99,97,100,1.65,LV,1692926512
377,lautoka,-17.6167,177.4667,25.92,50,20,6.17,FJ,1692926513
378,santa rosa,14.3122,121.1114,30.05,82,100,4.01,PH,1692926514
379,caleta de carquin,-11.0925,-77.6267,19.62,82,22,6.06,PE,1692926514
380,puerto baquerizo moreno,-0.9,-89.6,23.64,79,100,3.75,EC,1692926515
381,lompoc,34.6391,-120.4579,27.79,79,40,5.36,US,1692926348
382,agat village,13.3886,144.6585,32.06,77,75,4.63,GU,1692926516
383,codrington,-38.2667,141.9667,14.66,82,90,4.8,AU,1692926517
384,la passe,45.5549,-0.8967,23.13,94,80,5.13,FR,1692926518
385,kovdor,67.5662,30.4758,9.49,86,36,0.45,RU,1692926519
386,banda aceh,5.5577,95.3222,27.15,79,16,1.32,ID,1692926520
387,papao,-17.75,-149.55,27.82,74,0,5.8,PF,1692926521
388,yanam,16.7333,82.2167,26.08,83,99,2.05,IN,1692926522
389,queenstown,-31.8976,26.8753,13.71,26,100,3.37,ZA,1692926522
390,wotho,10.1657,166.0102,28.2,77,94,4.39,MH,1692926523
391,ratnagiri,16.9833,73.3,26.15,82,100,1.0,IN,1692926331
392,altai,46.3722,96.2583,8.79,87,96,1.65,MN,1692926525
393,ketchikan,55.3422,-131.6461,19.26,68,0,6.17,US,1692926433
394,minas de marcona,-15.2119,-75.1103,12.97,85,44,6.07,PE,1692926527
395,stephenville,32.2207,-98.2023,37.44,24,0,0.0,US,1692926528
396,sibundoy,1.2048,-76.9237,13.04,95,53,0.46,CO,1692926529
397,gwaram,11.2764,9.8858,21.74,76,20,2.31,NG,1692926529
398,uenohara,35.6167,139.1167,31.8,56,2,2.28,JP,1692926530
399,magadan,59.5667,150.8,12.52,83,100,4.06,RU,1692926531
400,iskateley,67.6803,53.1512,6.39,92,100,4.83,RU,1692926532
401,miri,4.4148,114.0089,28.08,89,40,1.54,MY,1692926404
402,jayapura,-2.5333,140.7,29.66,64,93,0.64,ID,1692926534
403,choma,-16.8065,26.9531,19.12,33,0,3.31,ZM,1692926535
404,cockburn town,21.4612,-71.1419,28.85,78,22,7.31,TC,1692926536
405,bay minette,30.883,-87.773,30.9,67,7,2.14,US,1692926381
406,dongola,19.1667,30.4833,35.94,16,0,4.17,SD,1692926537
407,selfoss,63.9331,-20.9971,8.36,83,0,1.34,IS,1692926539
408,howard springs,-12.497,131.047,30.46,43,1,5.04,AU,1692926540
409,tabas,33.5959,56.9244,27.51,20,0,1.29,IR,1692926540
410,mutsu,41.2894,141.2169,31.11,67,0,0.35,JP,1692926541
411,egilsstadir,65.2653,-14.3948,8.95,93,0,2.06,IS,1692926542
412,tofol,5.3248,163.0078,28.88,74,75,1.54,FM,1692926542
413,at taj,24.2049,23.2857,29.56,22,5,5.28,LY,1692926543
414,beira,-19.8436,34.8389,20.02,94,8,2.18,MZ,1692926544
415,sao geraldo do araguaia,-6.4006,-48.555,28.53,44,63,1.05,BR,1692926545
416,vernon,50.2581,-119.2691,24.31,42,9,3.58,CA,1692926362
417,rabo de peixe,37.8,-25.5833,19.73,94,75,2.57,PT,1692926546
418,ixtapa-zihuatanejo,17.6333,-101.55,29.05,74,20,0.0,MX,1692926305
419,montepuez,-13.1256,38.9997,18.68,91,0,1.15,MZ,1692926548
420,quintanar del rey,39.3382,-1.9389,23.78,44,0,2.23,ES,1692926548
421,tsiombe,-25.3,45.4833,18.42,96,6,1.99,MG,1692926550
422,tostado,-29.232,-61.7692,13.32,44,0,3.94,AR,1692926551
423,konarka,19.9,86.1167,26.22,78,100,3.79,IN,1692926552
424,hemsby,52.6971,1.6918,17.13,78,100,6.32,GB,1692926552
425,ende,-8.8432,121.6623,27.99,58,6,2.42,ID,1692926553
426,ortega,3.9361,-75.2217,27.86,51,19,2.18,CO,1692926554
427,rundu,-17.9333,19.7667,18.08,23,0,1.2,NA,1692926554
428,brisas de zicatela,15.8369,-97.0419,24.29,73,100,3.09,MX,1692926555
429,argo,37.6333,22.7333,27.66,45,0,1.83,GR,1692926556
430,natal,-5.795,-35.2094,25.12,88,75,3.6,BR,1692926556
431,song cau,13.45,109.2167,30.24,63,72,2.67,VN,1692926557
432,san antonio de pale,-1.4014,5.6325,23.03,91,99,4.89,GQ,1692926558
433,portland,45.5234,-122.6762,33.96,26,20,7.2,US,1692926378
434,spring creek,40.7266,-115.5859,29.83,25,97,2.34,US,1692926474
435,tubarjal,30.4999,38.216,28.08,31,1,5.88,SA,1692926560
436,ameca,20.55,-104.0333,24.62,67,100,0.95,MX,1692926560
437,kashgar,39.4547,75.9797,20.56,52,20,4.0,CN,1692926561
438,uturoa,-16.7333,-151.4333,25.54,76,3,6.24,PF,1692926562
439,gaspe,48.8334,-64.4819,11.95,93,0,1.54,CA,1692926528
440,kananga,-5.8958,22.4178,22.03,51,59,0.85,CD,1692926563
441,cambria,35.5641,-121.0808,25.65,89,37,1.79,US,1692926564
442,palasa,18.7667,84.4167,27.55,79,100,2.32,IN,1692926565
443,conceicao da barra,-18.5933,-39.7322,23.81,89,1,4.86,BR,1692926566
444,nova vicosa,-17.8919,-39.3719,24.1,87,0,6.6,BR,1692926479
445,moyynkum,44.2914,72.9469,23.96,32,2,3.59,KZ,1692926567
446,wobulenzi,0.7283,32.5122,18.09,76,75,1.03,UG,1692926568
447,xilin hot,43.9667,116.0333,13.52,77,95,3.73,CN,1692926570
448,vyazemskiy,47.5378,134.7525,23.8,65,100,2.19,RU,1692926570
449,ugoofaaru,5.6667,73.0,28.07,72,37,3.35,MV,1692926571
450,north myrtle beach,33.816,-78.68,27.29,72,0,3.09,US,1692926375
451,bamboo flat,11.7,92.7167,25.05,94,75,2.57,IN,1692926573
452,masterton,-40.9597,175.6575,12.16,66,99,0.76,NZ,1692926573
453,meadow lake,34.8014,-106.5436,27.86,48,44,5.1,US,1692926574
454,faya-largeau,17.9257,19.1043,30.95,46,100,4.71,TD,1692926574
455,brezina,33.0989,1.2608,28.03,28,0,3.59,DZ,1692926575
456,polyarnyy,69.1989,33.4478,6.66,84,83,0.62,RU,1692926576
457,kamiiso,41.8167,140.65,29.21,89,20,3.09,JP,1692926577
458,amungan,15.3652,119.9582,28.6,77,99,2.12,PH,1692926577
459,smara,26.7384,-11.6719,33.27,36,57,3.94,EH,1692926578
460,kittila,67.6647,24.8936,11.08,93,100,0.0,FI,1692926580
461,eyl,7.9803,49.8164,25.06,72,43,8.15,SO,1692926580
462,luderitz,-26.6481,15.1594,11.61,88,5,3.92,NA,1692926581
463,kaga bandoro,6.9896,19.1874,21.63,97,100,0.67,CF,1692926582
464,zharkent,44.1628,80.0,22.77,30,0,2.01,KZ,1692926583
465,taoudenni,22.6783,-3.9836,35.94,12,3,8.25,ML,1692926477
466,rikaze,29.25,88.8833,12.8,65,100,0.76,CN,1692926584
467,oriximina,-1.7656,-55.8661,27.27,53,10,1.39,BR,1692926585
468,colonia,50.9333,6.95,19.34,89,0,2.06,DE,1692926310
469,nabire,-3.3667,135.4833,28.61,74,88,1.69,ID,1692926586
470,ponta delgada,37.7333,-25.6667,20.4,94,75,2.57,PT,1692926587
471,shadegan,30.6497,48.6647,30.97,8,0,8.21,IR,1692926588
472,port macquarie,-31.4333,152.9167,18.83,57,0,2.11,AU,1692926589
473,katabu,-4.9333,122.5167,29.15,51,96,4.18,ID,1692926589
474,jiangzi,28.95,89.6333,8.91,65,100,1.88,CN,1692926590
475,inhambane,-23.865,35.3833,20.5,90,0,2.23,MZ,1692926591
476,thames,-37.1333,175.5333,12.67,61,100,0.9,NZ,1692926592
477,santa cruz,-17.8,-63.1667,26.7,74,20,3.6,BO,1692926592
478,saint-philippe,-21.3585,55.7679,18.77,82,40,4.65,RE,1692926593
479,alamosa,37.4695,-105.87,23.99,41,0,5.66,US,1692926594
480,pacific grove,36.6177,-121.9166,21.87,85,40,5.14,US,1692926594
481,sim,54.993,57.6982,6.3,81,16,1.46,RU,1692926595
482,derinkuyu,38.3751,34.7342,14.31,38,0,1.18,TR,1692926596
483,mantua,45.1667,10.7833,28.53,84,89,0.45,IT,1692926596
484,yeniseysk,58.4497,92.1703,17.8,66,48,3.5,RU,1692926597
485,angaur state,6.906,134.13,27.94,79,92,5.35,PW,1692926598
486,fort meade,39.1082,-76.7432,25.67,82,100,1.54,US,1692926475
487,zag,46.9441,99.165,8.64,89,100,1.51,MN,1692926600
488,kodiak,57.79,-152.4072,16.73,72,40,3.6,US,1692926600
489,knyaze-volkonskoye,48.4642,135.4567,23.19,74,100,2.38,RU,1692926601
490,olhao,37.0286,-7.8411,28.49,65,0,1.03,PT,1692926602
491,lloydminster,53.2835,-110.0016,16.12,72,75,5.66,CA,1692926603
492,port-vila,-17.7338,168.3219,25.78,57,40,5.66,VU,1692926603
493,nsanje,-16.92,35.262,21.42,66,2,1.64,MW,1692926604
494,pisco,-13.7,-76.2167,19.03,82,100,6.17,PE,1692926605
495,aras-asan,8.8908,126.3033,28.9,71,20,1.05,PH,1692926606
496,yuanping,38.7153,112.7575,20.57,49,100,0.3,CN,1692926606
497,hailar,49.2,119.7,16.6,61,100,3.78,CN,1692926607
498,tinajo,29.0788,-13.7081,23.49,94,100,4.63,ES,1692926608
499,lensk,60.7253,114.9278,18.19,57,100,0.6,RU,1692926608
500,opuwo,-18.0607,13.84,17.43,30,5,2.45,NA,1692926483
501,mecca,21.4267,39.8261,33.67,37,0,1.29,SA,1692926610
502,phang nga,8.4509,98.5298,28.02,79,39,0.93,TH,1692926611
503,kristiansund,63.1115,7.732,13.36,88,24,3.09,NO,1692926613
504,abashiri,44.0213,144.2697,31.16,74,20,1.54,JP,1692926616
505,sihanoukville,10.6093,103.5296,28.97,89,40,0.51,KH,1692926618
506,xiva,41.3783,60.3639,19.99,29,0,3.44,UZ,1692926618
507,jahanabad,25.2167,84.9833,27.91,89,100,2.57,IN,1692926619
508,quellon,-43.1167,-73.6167,4.14,93,20,3.09,CL,1692926620
509,pandan,14.0453,124.1694,30.41,65,100,2.87,PH,1692926620
510,trairi,-3.2778,-39.2689,25.39,85,8,4.17,BR,1692926621
511,mariental,-24.6333,17.9667,15.4,17,75,2.48,NA,1692926622
512,brech,47.7213,-2.9986,16.57,87,8,3.68,FR,1692926623
513,valparaiso,-33.0393,-71.6273,10.8,76,0,2.06,CL,1692926624
514,zhu cheng city,35.995,119.4026,25.82,65,0,3.16,CN,1692926624
515,sheridan,44.8333,-106.9173,31.21,29,0,0.89,US,1692926625
516,oskarshamn,57.2645,16.4484,14.08,76,100,1.6,SE,1692926626
517,rokupr,8.6717,-12.395,23.2,99,100,0.85,SL,1692926626
518,new norfolk,-42.7826,147.0587,12.72,60,63,4.31,AU,1692926627
519,trat,12.5,102.5,25.48,92,100,1.21,TH,1692926517
520,yenisarbademli,37.7078,31.3864,21.04,36,0,1.18,TR,1692926628
521,ouadda,8.0777,22.4007,19.89,96,13,1.48,CF,1692926629
522,banamba,13.55,-7.45,25.01,76,90,1.42,ML,1692926629
523,al hazm,16.1641,44.7769,28.59,30,75,2.25,YE,1692926630
524,antsiranana,-12.2787,49.2917,22.01,79,0,6.81,MG,1692926631
525,lunglei,22.8833,92.7333,20.5,99,100,0.85,IN,1692926632
526,nizhneangarsk,55.7833,109.55,15.07,69,16,0.67,RU,1692926632
527,tidjikja,18.5564,-11.4271,26.68,55,87,2.71,MR,1692926634
528,yuzhno-kurilsk,44.0306,145.8556,22.95,89,100,1.03,RU,1692926634
529,kankan,10.3854,-9.3057,22.61,94,100,1.05,GN,1692926635
530,bayanhongor,46.7167,100.1167,7.51,86,100,2.03,MN,1692926636
531,leer,53.2316,7.461,20.52,95,100,2.98,DE,1692926636
532,camana,-16.6228,-72.7111,17.48,83,49,3.65,PE,1692926637
533,gueret,46.1667,1.8667,22.93,61,74,3.4,FR,1692926638
534,porto torres,40.835,8.3972,22.1,64,0,1.95,IT,1692926638
535,berriane,32.8265,3.7669,29.45,23,1,4.7,DZ,1692926639
536,weno,7.4515,151.8468,30.97,79,100,4.12,FM,1692926640
537,arroyo,41.6096,-4.7969,25.08,35,0,3.09,ES,1692926640
538,isangel,-19.55,169.2667,25.06,73,75,3.09,VU,1692926568
539,singkawang,0.9,109.0,25.49,89,100,1.3,ID,1692926642
540,sawakin,19.1059,37.3321,31.88,61,0,1.17,SD,1692926643
541,ouddorp,51.8117,3.9347,19.99,89,100,3.46,NL,1692926644
542,remire-montjoly,4.9167,-52.2667,25.02,94,0,0.0,GF,1692926644
543,aydintepe,40.3894,40.1506,14.2,83,75,1.64,TR,1692926645
544,merrill,45.1805,-89.6835,23.97,92,100,3.6,US,1692926646
545,mata-utu,-13.2816,-176.1745,27.75,70,4,6.18,WF,1692926647
546,ancud,-41.8697,-73.8203,5.38,78,62,2.61,CL,1692926647
547,rada tilly,-45.9333,-67.5333,7.27,39,0,2.57,AR,1692926648
548,hebi,35.8992,114.1925,24.35,79,95,1.1,CN,1692926649
549,dakhla,23.6848,-15.958,22.25,87,93,4.25,EH,1692926649
550,ivanava,52.1451,25.5365,15.8,76,100,1.15,BY,1692926650
551,cururupu,-1.8283,-44.8683,23.34,89,0,1.78,BR,1692926651
552,ulundi,-28.3352,31.4162,12.64,95,57,2.15,ZA,1692926651
553,fada,9.5667,8.3,20.0,92,78,1.07,NG,1692926652
554,hamilton,39.1834,-84.5333,29.89,83,0,2.57,US,1692926653
555,burlington,39.8835,-74.6413,22.62,95,100,2.06,US,1692926653
556,shimanovsk,52.0,127.7,18.19,64,100,3.9,RU,1692926654
557,ha'il,27.5219,41.6907,28.01,17,0,1.03,SA,1692926655
558,novyy urengoy,66.0833,76.6333,7.28,83,1,6.02,RU,1692926656
559,zayed city,24.3768,54.589,35.0,84,99,2.57,AE,1692926656
560,priozersk,61.0393,30.1291,13.3,89,100,2.68,RU,1692926657
561,namibe,-15.1961,12.1522,17.82,92,37,0.95,AO,1692926537
562,richards bay,-28.783,32.0377,18.24,85,29,6.61,ZA,1692926658
563,slave lake,55.2834,-114.769,17.69,62,2,2.7,CA,1692926598
564,khilok,51.3674,110.4676,16.72,57,68,1.56,RU,1692926660
565,juneau,58.3019,-134.4197,18.0,84,40,4.12,US,1692926485
566,salahonda,2.1019,-78.7217,27.19,80,42,3.08,CO,1692926662
567,pangody,65.85,74.4859,6.61,90,7,6.7,RU,1692926662
568,sandnessjoen,66.0217,12.6316,9.29,89,69,3.21,NO,1692926663
569,tanumah,27.1,44.1333,31.82,12,2,2.02,SA,1692926665
570,sinan,34.8262,126.1086,27.06,85,0,2.02,KR,1692926666
571,galle,6.0367,80.217,26.92,81,99,4.1,LK,1692926667
572,usinsk,65.9939,57.5281,7.19,96,100,6.55,RU,1692926667
573,abeche,13.8292,20.8324,25.49,74,100,1.97,TD,1692926668
574,champerico,14.3,-91.9167,26.39,83,100,2.94,GT,1692926669
575,greenville,35.6127,-77.3663,27.02,68,0,6.17,US,1692926513
576,foundiougne,14.1333,-16.4667,26.87,84,97,2.2,SN,1692926670
577,franklin,39.9667,-83.0166,28.08,85,0,3.6,US,1692926549
578,usogorsk,63.4106,48.6872,8.21,86,100,3.79,RU,1692926671
579,zhengjiatun,43.5064,123.5064,19.57,74,100,3.36,CN,1692926672
580,sikonge,-5.6333,32.7667,20.54,45,6,3.94,TZ,1692926673
581,hoa binh,20.8133,105.3383,26.06,96,100,0.71,VN,1692926673
582,salalah,17.0151,54.0924,25.69,94,100,2.63,OM,1692926674
583,mayskiy,47.6931,40.1025,10.67,45,3,2.52,RU,1692926675
584,ubari,26.5921,12.7805,30.49,29,88,4.95,LY,1692926675
585,sainte-anne-des-monts,49.124,-66.4924,12.93,76,53,5.14,CA,1692926677
586,goderich,43.7501,-81.7165,22.18,94,100,1.03,CA,1692926679
587,jining,35.405,116.5814,24.73,72,1,1.78,CN,1692926680
588,ciudad madero,22.2667,-97.8333,29.11,94,40,6.17,MX,1692926558
589,solhan,38.9634,41.0293,18.76,47,0,1.65,TR,1692926682
590,castillos,-34.1667,-53.8333,6.79,77,100,2.34,UY,1692926682
591,jakar,27.5492,90.7525,15.16,99,100,0.46,BT,1692926683
592,puerto armuelles,8.2833,-82.8667,29.49,74,100,4.47,PA,1692926684
593,colon,9.3592,-79.9014,26.7,86,100,1.72,PA,1692926401
594,san bernardo del viento,9.3533,-75.9524,27.33,80,72,3.45,CO,1692926685
595,haiku-pauwela,20.9219,-156.3051,30.01,59,20,10.8,US,1692926686
596,mitu,1.1983,-70.1733,23.46,91,83,1.22,CO,1692926490
597,summerside,46.3959,-63.7876,15.06,77,5,3.6,CA,1692926687
598,north bend,43.4065,-124.2243,25.13,82,0,3.6,US,1692926688
599,nyurba,63.2842,118.3319,16.85,53,67,2.12,RU,1692926648
