City_ID,City,Lat,Lng,Max Temp,Humidity,Cloudiness,Wind Speed,Country,Date
0,tashtagol,52.7657,87.8894,26.75,46,5,1.35,RU,1692861528
1,kurchatov,51.6601,35.6521,20.23,55,8,4.1,RU,1692861530
2,wailua homesteads,22.0669,-159.378,27.44,78,20,7.72,US,1692861531
3,seydi,39.4816,62.9137,37.86,12,2,3.04,TM,1692861533
4,adamstown,-25.066,-130.1015,19.29,63,21,9.3,PN,1692861534
5,thompson,55.7435,-97.8558,12.09,87,75,1.03,CA,1692861517
6,hasaki,35.7333,140.8333,35.16,79,0,6.79,JP,1692861537
7,santo stefano di magra,44.1513,9.9241,33.52,62,0,2.06,IT,1692861538
8,puerto natales,-51.7236,-72.4875,3.24,89,100,7.08,CL,1692861540
9,nemuro,43.3236,145.575,21.44,96,54,6.78,JP,1692861541
10,waitangi,-43.9535,-176.5597,10.46,84,100,4.02,NZ,1692861543
11,alofi,-19.0595,-169.9187,21.94,78,100,4.63,NU,1692861546
12,ushuaia,-54.8,-68.3,0.81,93,40,1.54,AR,1692861551
13,chonchi,-42.6128,-73.8092,0.62,93,40,1.16,CL,1692861553
14,grytviken,-54.2811,-36.5092,-0.33,97,100,5.81,GS,1692861554
15,saudarkrokur,65.7461,-19.6394,9.44,93,37,0.95,IS,1692861556
16,tsumeb,-19.2333,17.7167,22.4,9,0,7.68,NA,1692861557
17,papatowai,-46.5619,169.4708,9.77,96,100,1.81,NZ,1692861558
18,tiksi,71.6872,128.8694,7.54,70,7,2.83,RU,1692861560
19,argostolion,38.1811,20.489,28.04,65,20,0.0,GR,1692861562
20,hammerfest,70.6634,23.6821,12.25,82,75,2.57,NO,1692861564
21,khandyga,62.6667,135.6,13.8,68,23,1.75,RU,1692861565
22,constantia,44.1833,28.65,29.38,65,95,1.65,RO,1692861567
23,mountain home,43.133,-115.6912,20.64,49,0,3.6,US,1692861448
24,iqaluit,63.7506,-68.5145,3.72,93,100,1.34,CA,1692861569
25,ribeira grande,38.5167,-28.7,20.43,83,75,4.47,PT,1692861571
26,edinburgh of the seven seas,-37.0676,-12.3116,12.54,82,50,5.66,SH,1692861572
27,prado,-17.3411,-39.2208,22.59,94,33,4.55,BR,1692861375
28,invercargill,-46.4,168.35,9.45,96,100,1.34,NZ,1692861577
29,cabo san lucas,22.8909,-109.9124,30.28,78,70,3.55,MX,1692861578
30,bondoukou,8.0333,-2.8,22.72,97,100,1.49,CI,1692861580
31,nantucket,41.2835,-70.0995,17.23,88,0,0.0,US,1692861581
32,sao joao da barra,-21.6403,-41.0511,22.56,82,0,4.37,BR,1692861548
33,petropavlovsk-kamchatsky,53.0452,158.6483,15.33,88,75,6.0,RU,1692861584
34,piton saint-leu,-21.2196,55.3151,23.06,57,75,6.17,RE,1692861585
35,kosh-agach,50.0,88.6667,21.94,29,16,1.04,RU,1692861587
36,port mathurin,-19.6833,63.4167,22.55,69,48,11.46,MU,1692861588
37,mount pearl,47.5166,-52.7813,13.8,97,100,1.54,CA,1692861590
38,hastings,50.8552,0.5729,19.86,41,100,1.87,GB,1692861591
39,mariehamn,60.0973,19.9348,17.92,88,75,1.54,AX,1692861593
40,nuku'alofa,-21.1333,-175.2,20.19,73,75,3.09,TO,1692861594
41,mugia,43.1041,-9.2179,21.2,89,98,4.49,ES,1692861596
42,nadvoitsy,63.8667,34.3167,12.85,57,0,1.29,RU,1692861597
43,west island,-12.1568,96.8225,27.99,65,82,5.66,CC,1692861598
44,lorengau,-2.0226,147.2712,28.53,76,100,4.09,PG,1692861600
45,vorgashor,67.5833,63.95,13.12,65,100,7.2,RU,1692861601
46,albany,42.6001,-73.9662,15.93,86,77,0.79,US,1692861543
47,novoanninskiy,50.5287,42.6747,20.31,74,0,6.44,RU,1692861605
48,tanout,14.9709,8.8879,29.64,55,40,8.93,NE,1692861606
49,wuhai,39.6647,106.8122,28.19,15,6,2.49,CN,1692861608
50,enewetak,11.3474,162.3373,29.19,69,100,0.56,MH,1692861609
51,margaret river,-33.95,115.0667,16.78,62,34,2.99,AU,1692861611
52,anadyr,64.75,177.4833,8.89,66,20,1.79,RU,1692861612
53,saint-joseph,-21.3667,55.6167,24.21,68,41,5.2,RE,1692861614
54,qaqortoq,60.7167,-46.0333,9.46,98,100,2.16,GL,1692861615
55,puerto francisco de orellana,-0.4667,-76.9667,20.21,98,13,1.11,EC,1692861617
56,avarua,-21.2078,-159.775,23.03,83,75,0.51,CK,1692861618
57,sandnessjoen,66.0217,12.6316,14.06,88,75,2.06,NO,1692861620
58,bilibino,68.0546,166.4372,11.56,47,90,0.76,RU,1692861621
59,tazovsky,67.4667,78.7,13.96,65,100,5.43,RU,1692861623
60,fort bragg,35.139,-79.006,20.25,82,0,0.0,US,1692861624
61,dudinka,69.4058,86.1778,13.68,67,98,5.01,RU,1692861626
62,tsiombe,-25.3,45.4833,27.49,49,0,1.43,MG,1692861628
63,bokhan,53.153,103.7714,23.99,41,0,2.76,RU,1692861630
64,port-aux-francais,-49.35,70.2167,5.9,96,100,15.98,TF,1692861631
65,fort abbas,29.1925,72.8536,36.05,37,100,5.75,PK,1692861632
66,lata,40.1629,-8.3327,19.49,79,97,0.83,PT,1692861634
67,nagqu,31.5,92.0,11.68,62,100,4.08,CN,1692861635
68,codrington,-38.2667,141.9667,15.0,65,100,5.42,AU,1692861637
69,polyarnyy,69.1989,33.4478,10.9,68,64,1.9,RU,1692861638
70,yabelo,4.8833,38.0833,19.08,54,27,5.96,ET,1692861640
71,nouadhibou,20.931,-17.0347,27.99,74,40,2.06,MR,1692861641
72,lihue,21.9789,-159.3672,27.77,71,20,7.72,US,1692861643
73,bredasdorp,-34.5322,20.0403,9.78,74,100,1.32,ZA,1692861644
74,saldanha,-33.0117,17.9442,10.36,71,100,2.87,ZA,1692861646
75,yellowknife,62.456,-114.3525,15.79,83,15,0.89,CA,1692861550
76,naze,28.3667,129.4833,27.51,79,100,1.8,JP,1692861648
77,bethel,41.3712,-73.414,20.36,85,0,0.0,US,1692861650
78,new norfolk,-42.7826,147.0587,16.62,64,100,3.6,AU,1692861651
79,jamestown,42.097,-79.2353,17.79,98,100,2.57,US,1692861649
80,nova paka,50.4945,15.515,22.4,57,5,0.6,CZ,1692861654
81,qingdao,36.0986,120.3719,31.78,37,0,2.0,CN,1692861655
82,santa cruz,-17.8,-63.1667,25.7,73,3,6.69,BO,1692861657
83,vilyuysk,63.7553,121.6247,18.04,34,18,1.98,RU,1692861658
84,parambu,-6.2111,-40.6944,20.03,72,4,1.46,BR,1692861660
85,san patricio,28.017,-97.5169,28.25,85,8,2.31,US,1692861661
86,ilulissat,69.2167,-51.1,7.01,93,100,0.0,GL,1692861663
87,fort meade,39.1082,-76.7432,23.02,73,100,2.06,US,1692861664
88,thunder bay,48.4001,-89.3168,14.95,100,100,3.09,CA,1692861569
89,hithadhoo,-0.6,73.0833,27.78,76,100,6.38,MV,1692861667
90,egilsstadir,65.2653,-14.3948,8.95,93,100,0.51,IS,1692861669
91,jinxiang,27.4327,120.6062,29.36,79,100,2.59,CN,1692861670
92,machico,32.7,-16.7667,23.35,78,20,1.03,PT,1692861672
93,porto novo,6.4965,2.6036,24.99,88,100,2.5,BJ,1692861673
94,blackmans bay,-43.0167,147.3167,15.96,60,100,3.82,AU,1692861674
95,coxim,-18.5067,-54.76,27.77,33,70,1.85,BR,1692861676
96,altai,46.3722,96.2583,15.94,42,100,4.0,MN,1692861677
97,longyearbyen,78.2186,15.6401,6.91,87,75,1.03,SJ,1692861623
98,klyuchi,52.2667,79.1667,34.66,20,65,5.71,RU,1692861680
99,shimoda,34.6667,138.95,30.2,75,65,3.67,JP,1692861682
100,hermanus,-34.4187,19.2345,9.89,74,100,3.14,ZA,1692861683
101,biltine,14.5333,20.9167,28.36,51,40,2.58,TD,1692861684
102,puerto ayora,-0.7393,-90.3518,23.08,92,97,0.89,EC,1692861686
103,pontes e lacerda,-15.2261,-59.3353,22.59,40,35,1.04,BR,1692861687
104,badger,64.8,-147.5333,15.95,86,100,0.0,US,1692861689
105,pemba,-12.974,40.5178,26.39,78,40,2.06,MZ,1692861690
106,canmore,51.0834,-115.3521,8.78,61,99,3.06,CA,1692861692
107,isafjordur,66.0755,-23.124,6.02,81,0,1.54,IS,1692861694
108,wulingyuan,29.3494,110.5441,31.66,44,100,2.31,CN,1692861696
109,aykhal,66.0,111.5,19.45,47,98,6.03,RU,1692861697
110,carnarvon,-24.8667,113.6333,22.58,49,3,4.65,AU,1692861699
111,kitgum,3.2783,32.8867,28.34,38,4,2.29,UG,1692861700
112,hawaiian paradise park,19.5933,-154.9731,23.35,94,75,3.09,US,1692861701
113,whangarei,-35.7317,174.3239,9.98,82,100,0.62,NZ,1692861703
114,mont-tremblant,46.1949,-74.6264,14.65,91,54,1.02,CA,1692860979
115,mana,5.6592,-53.7767,24.4,91,92,2.87,GF,1692861706
116,baiao,-2.7906,-49.6717,22.56,92,6,1.51,BR,1692861707
117,kalanwali,29.85,74.95,35.9,40,100,3.81,IN,1692861709
118,iskateley,67.6803,53.1512,9.58,88,100,7.31,RU,1692861710
119,conduaga,8.862,117.4893,29.45,74,82,3.3,PH,1692861712
120,ta`u,-14.2336,-169.5144,26.56,79,29,8.34,AS,1692861713
121,alice springs,-23.7,133.8833,24.75,13,0,3.09,AU,1692861715
122,cururupu,-1.8283,-44.8683,23.7,89,11,2.02,BR,1692861716
123,ust-nera,64.5667,143.2,7.64,88,100,2.42,RU,1692861717
124,puerto quijarro,-17.7833,-57.7667,23.12,39,5,1.02,BO,1692861719
125,datong,40.0936,113.2914,23.12,40,86,3.19,CN,1692861720
126,georgetown,5.4112,100.3354,28.96,79,40,2.06,MY,1692861536
127,becancour,46.3334,-72.4324,14.74,94,100,1.03,CA,1692861723
128,dakoro,14.5106,6.765,28.18,63,10,7.16,NE,1692861724
129,arteaga,18.4667,-102.4167,19.17,97,100,1.45,MX,1692861726
130,harsin,34.2721,47.5861,31.45,10,0,1.66,IR,1692861727
131,sur,22.5667,59.5289,35.81,45,33,2.21,OM,1692861729
132,st. john's,47.5649,-52.7093,14.26,97,100,1.54,CA,1692861508
133,stanley,54.868,-1.6985,15.16,92,98,1.26,GB,1692861536
134,tianshui,34.5439,105.6897,28.28,31,3,7.63,CN,1692861733
135,chimoio,-19.1164,33.4833,27.48,23,0,1.23,MZ,1692861734
136,atafu village,-8.5421,-172.5159,28.19,79,99,8.08,TK,1692861736
137,lompoc,34.6391,-120.4579,19.32,87,100,0.89,US,1692861738
138,harstad,68.799,16.5293,13.42,98,100,1.34,NO,1692861739
139,lib,8.3122,167.3766,28.42,75,7,4.3,MH,1692861741
140,afaahiti,-17.75,-149.2833,21.93,74,19,6.81,PF,1692861742
141,port saint john's,-31.6229,29.5448,15.83,57,50,1.07,ZA,1692861744
142,shanhecun,44.7,127.2,24.83,70,95,3.06,CN,1692861745
143,remire-montjoly,4.9167,-52.2667,22.02,100,0,0.0,GF,1692861747
144,kalmunai,7.4167,81.8167,32.37,55,4,4.61,LK,1692861749
145,ayutla de los libres,16.9,-99.2167,24.15,97,99,1.08,MX,1692861750
146,hibaiyo,10.2726,123.321,30.42,69,35,3.2,PH,1692861751
147,takoradi,4.8845,-1.7554,24.12,91,100,2.49,GH,1692861696
148,dryden,49.7833,-92.7503,17.16,94,100,0.0,CA,1692861756
149,hamilton,39.1834,-84.5333,26.39,86,0,2.57,US,1692861651
150,sisimiut,66.9395,-53.6735,7.36,87,9,2.61,GL,1692861760
151,lamar,33.6668,-95.5836,28.99,78,0,2.57,US,1692861761
152,okhotsk,59.3833,143.3,13.88,96,100,5.61,RU,1692861762
153,fortaleza,-3.7227,-38.5247,24.56,94,40,2.06,BR,1692861601
154,lebu,-37.6167,-73.65,7.23,83,32,1.62,CL,1692861765
155,abbeville,50.1,1.8333,21.39,85,100,2.76,FR,1692861767
156,tomatlan,19.9333,-105.25,26.46,94,100,0.73,MX,1692861768
157,dunedin,-45.8742,170.5036,9.89,73,100,0.74,NZ,1692861770
158,olonkinbyen,70.9221,-8.7187,5.22,82,100,1.12,SJ,1692861771
159,chadron,42.8294,-102.9999,21.82,56,0,2.57,US,1692861772
160,maracaibo,10.6317,-71.6406,26.77,85,99,5.28,VE,1692861680
161,hobyo,5.3505,48.5268,28.76,60,98,9.51,SO,1692861775
162,castillos,-34.1667,-53.8333,8.74,82,99,2.89,UY,1692861777
163,leland,34.2563,-78.0447,24.44,85,0,0.45,US,1692861613
164,mont-laurier,46.5501,-75.4993,11.79,94,100,1.08,CA,1692861779
165,shimanovsk,52.0,127.7,18.28,76,100,3.92,RU,1692861781
166,nova sintra,14.8667,-24.7167,24.29,78,85,5.72,CV,1692861782
167,port elizabeth,-33.918,25.5701,14.16,58,0,2.06,ZA,1692861784
168,manokwari,-0.8667,134.0833,28.15,74,32,2.48,ID,1692861786
169,stornoway,58.2093,-6.3865,12.98,89,75,7.72,GB,1692861787
170,dalhousie,32.5333,75.9833,20.38,81,87,2.9,IN,1692861789
171,tobelo,1.7284,128.0095,28.79,72,61,0.81,ID,1692861790
172,uturoa,-16.7333,-151.4333,24.74,68,87,5.43,PF,1692861792
173,santiago,-33.4569,-70.6483,10.47,92,75,0.0,CL,1692861601
174,al jawf,29.5,38.75,37.02,15,5,3.81,SA,1692861794
175,sao vicente,-23.9631,-46.3919,30.15,41,1,4.88,BR,1692861796
176,talnakh,69.4865,88.3972,13.45,61,44,3.96,RU,1692861799
177,sinabang,2.4803,96.3801,28.85,74,23,0.64,ID,1692861800
178,kaa-khem,51.6833,94.7333,26.79,28,8,1.18,RU,1692861802
179,nago,26.5881,127.9761,31.92,73,45,2.03,JP,1692861803
180,meadow lakes,61.6247,-149.6011,14.85,95,100,1.54,US,1692861804
181,east london,-33.0153,27.9116,15.52,58,0,2.57,ZA,1692861806
182,romblon,12.5751,122.2708,29.2,74,100,6.65,PH,1692861807
183,jayapura,-2.5333,140.7,30.66,77,100,0.91,ID,1692861809
184,mejit,10.2753,170.8646,28.29,73,48,4.87,MH,1692861810
185,jalalaqsi,3.3766,45.5996,30.98,41,20,8.23,SO,1692861812
186,bikenibeu village,1.3673,173.1241,28.98,79,20,1.03,KI,1692861813
187,tolanaro,-25.0319,46.9987,26.04,65,20,9.77,MG,1692861816
188,callao,-12.0667,-77.15,20.16,73,100,4.12,PE,1692861817
189,conde,-7.2597,-34.9075,21.7,100,20,2.06,BR,1692861819
190,usinsk,65.9939,57.5281,10.73,77,88,5.61,RU,1692861820
191,tshabong,-26.05,22.45,15.46,26,0,4.44,BW,1692861822
192,manavalakurichi,8.1333,77.3,30.74,63,93,7.46,IN,1692861823
193,hanting,36.7708,119.2108,31.73,32,9,5.01,CN,1692861824
194,fort st. john,56.2499,-120.8529,12.94,76,100,3.09,CA,1692861826
195,solleftea,63.1667,17.2667,14.92,96,100,1.28,SE,1692861827
196,klaksvik,62.2266,-6.589,10.51,92,94,1.08,FO,1692861829
197,magnolia,33.2671,-93.2393,23.83,100,100,1.7,US,1692861830
198,galesong,-5.3166,119.3661,31.01,61,43,6.17,ID,1692861550
199,kapa'a,22.0752,-159.319,28.18,78,20,7.72,US,1692861833
200,brisas de zicatela,15.8369,-97.0419,26.18,87,100,2.21,MX,1692861835
201,hartsville,34.374,-80.0734,20.98,83,40,0.0,US,1692861607
202,utrik,11.2278,169.8474,28.34,75,54,4.6,MH,1692861838
203,aasiaat,68.7098,-52.8699,5.3,87,100,1.71,GL,1692861839
204,tarawa,1.419,172.984,29.05,79,20,1.03,KI,1692861841
205,gadzhiyevo,69.2551,33.3362,10.74,67,76,2.05,RU,1692861842
206,kailua-kona,19.6406,-155.9956,26.98,85,40,3.6,US,1692861844
207,hengchun,22.0042,120.7439,30.02,71,95,2.98,TW,1692861846
208,ulanhot,46.0833,122.0833,22.45,57,100,3.37,CN,1692861848
209,mandalgovi,45.7625,106.2708,19.54,30,96,2.97,MN,1692861849
210,kruisfontein,-34.0033,24.7314,12.16,62,100,1.36,ZA,1692861851
211,souillac,-20.5167,57.5167,25.21,53,40,5.14,MU,1692861853
212,kavaratti,10.5669,72.642,27.76,75,100,4.36,IN,1692861854
213,grande prairie,55.1667,-118.8027,13.1,94,100,5.14,CA,1692861856
214,novyy urgal,51.0736,132.5642,22.19,64,7,3.83,RU,1692861858
215,port lincoln,-34.7333,135.8667,18.37,45,0,6.49,AU,1692861859
216,piti village,13.4626,144.6933,30.03,87,100,5.55,GU,1692861861
217,solnechnyy,50.7214,136.6319,22.83,68,89,1.4,RU,1692861862
218,richards bay,-28.783,32.0377,19.83,65,100,2.21,ZA,1692861865
219,shache,38.4167,77.2406,29.6,22,100,1.25,CN,1692861867
220,mikun',62.3547,50.0771,7.58,90,100,4.28,RU,1692861868
221,minas de marcona,-15.2119,-75.1103,12.0,88,48,4.76,PE,1692861870
222,whitehorse,60.7161,-135.0538,15.45,51,20,3.09,CA,1692861871
223,bonthe,7.5264,-12.505,25.09,93,36,2.27,SL,1692861873
224,vilyuchinsk,52.9306,158.4028,16.15,93,100,2.35,RU,1692861874
225,as sulayyil,20.4607,45.5779,39.75,10,10,0.44,SA,1692861638
226,greymouth,-42.4667,171.2,7.98,91,16,1.71,NZ,1692861877
227,campina grande do sul,-25.3056,-49.0553,24.18,46,0,4.54,BR,1692861879
228,kirakira,-10.4544,161.9205,26.05,85,64,5.53,SB,1692861880
229,kapuskasing,49.4169,-82.4331,12.05,100,100,1.03,CA,1692861882
230,yarega,63.4354,53.5765,7.46,96,100,4.8,RU,1692861883
231,lucheng,31.2336,117.2806,31.35,54,0,2.73,CN,1692861885
232,tahe,52.3333,124.7333,22.73,30,5,3.77,CN,1692861888
233,geraldton,-28.7667,114.6,23.23,56,0,4.63,AU,1692861889
234,mossel bay,-34.1831,22.146,13.96,61,100,1.25,ZA,1692861891
235,howrah,22.5892,88.3103,31.0,79,75,4.12,IN,1692861892
236,nuriootpa,-34.4833,139.0,17.99,53,0,5.24,AU,1692861894
237,kenai,60.5544,-151.2583,14.05,94,100,4.63,US,1692861895
238,petrolina,-9.3986,-40.5008,23.03,78,0,4.63,BR,1692861897
239,udachny,66.4167,112.4,21.36,42,37,4.9,RU,1692861898
240,alamosa,37.4695,-105.87,12.99,67,0,3.09,US,1692861899
241,lauttasaari,60.1594,24.8753,19.59,86,75,1.79,FI,1692861901
242,mirnyy,62.5353,113.9611,20.13,49,92,4.02,RU,1692861902
243,college,64.8569,-147.8028,15.99,85,75,0.0,US,1692861904
244,el bayadh,33.6832,1.0193,24.81,28,0,5.27,DZ,1692861905
245,bebedja,8.6761,16.566,24.08,80,93,1.54,TD,1692861907
246,impfondo,1.6381,18.0667,21.86,98,100,2.56,CG,1692861908
247,arraial do cabo,-22.9661,-42.0278,22.15,79,0,7.38,BR,1692861910
248,punta arenas,-53.15,-70.9167,3.41,92,100,7.87,CL,1692861899
249,besiri,37.9184,41.2924,34.05,23,0,1.54,TR,1692861913
250,asahikawa,43.7678,142.3703,31.56,70,75,3.6,JP,1692861914
251,san luis de la loma,17.2706,-100.8939,25.97,89,100,1.5,MX,1692861916
252,ar ruways,24.1103,52.7306,38.15,43,100,4.42,AE,1692861917
253,chibougamau,49.9168,-74.3659,9.79,93,0,2.06,CA,1692861919
254,ormara,25.2088,64.6357,27.61,83,87,9.82,PK,1692861920
255,alaghsas,17.0187,8.0168,29.94,70,0,4.12,NE,1692861921
256,gamay,12.3854,125.2979,29.33,83,100,1.37,PH,1692861923
257,foumbot,5.5079,10.6356,19.85,91,100,0.95,CM,1692861925
258,mwene-ditu,-7.0,23.45,29.35,16,60,3.44,CD,1692861926
259,maua,-23.6678,-46.4614,25.2,41,3,3.96,BR,1692861928
260,tura,25.5198,90.2201,24.65,97,100,2.11,IN,1692861929
261,port moresby,-9.4431,147.1797,26.68,83,75,10.29,PG,1692861725
262,sitia,35.2,26.0986,27.77,56,0,2.38,GR,1692861934
263,motupe,-6.1519,-79.7142,18.01,83,100,0.93,PE,1692861798
264,susuman,62.7833,148.1667,9.17,95,100,1.02,RU,1692861938
265,kuraymah,18.55,31.85,37.2,28,4,4.07,SD,1692861941
266,farsala,39.2947,22.3847,31.16,31,0,1.85,GR,1692861943
267,darwin,-12.4611,130.8418,31.61,39,0,5.81,AU,1692861704
268,nema,57.5067,50.5011,14.32,48,100,3.12,RU,1692861946
269,kerikeri,-35.2268,173.9474,11.62,88,79,0.35,NZ,1692861947
270,grand-lahou,5.1367,-5.0242,24.18,91,73,1.66,CI,1692861949
271,tamanrasset,22.785,5.5228,29.95,20,0,8.23,DZ,1692861950
272,pont rouge,48.8833,-72.0825,11.16,78,8,1.69,CA,1692861952
273,celestun,20.8667,-90.4,25.9,86,43,4.23,MX,1692861954
274,juli,-16.2167,-69.45,3.54,37,41,1.0,PE,1692861955
275,isla mujeres,21.2311,-86.731,26.03,80,19,3.57,MX,1692861956
276,dauphin,51.1494,-100.0502,18.08,94,100,1.03,CA,1692861958
277,pisco,-13.7,-76.2167,19.03,77,100,2.06,PE,1692861875
278,springs,-26.25,28.4,19.07,83,0,3.24,ZA,1692861961
279,kiffa,16.6166,-11.4045,29.97,62,100,3.78,MR,1692861962
280,praya,14.9215,-23.5087,26.3,73,20,3.6,CV,1692861964
281,myeik,12.4333,98.6,27.5,79,100,3.75,MM,1692861901
282,tindouf,27.6711,-8.1474,29.25,21,0,4.12,DZ,1692861967
283,serenje,-13.2325,30.2352,23.38,30,52,3.02,ZM,1692861968
284,nikolayevsk-on-amure,53.1406,140.73,21.98,81,73,1.04,RU,1692861971
285,san jose de guanipa,8.8872,-64.1651,22.23,92,100,2.75,VE,1692861974
286,flying fish cove,-10.4217,105.6791,25.82,78,75,6.69,CX,1692861975
287,naryshkino,52.9678,35.7268,19.34,58,9,4.4,RU,1692861976
288,buckhannon,38.994,-80.232,20.3,98,100,2.06,US,1692861979
289,tommot,58.9564,126.2925,15.18,49,83,0.95,RU,1692861981
290,envira,-7.3,-70.2167,22.18,69,91,1.1,BR,1692861982
291,kirsehir,39.3333,34.1667,25.11,27,0,1.85,TR,1692861984
292,shakawe,-18.3667,21.85,24.12,15,0,2.49,BW,1692861985
293,rawson,-43.3002,-65.1023,4.75,58,0,7.26,AR,1692861988
294,francisco sa,-16.4758,-43.4883,20.23,55,7,1.81,BR,1692861990
295,verkhnevilyuysk,63.4453,120.3167,18.32,33,13,2.15,RU,1692861991
296,greenland,43.0362,-70.8328,16.17,90,0,1.54,US,1692861993
297,beira,-19.8436,34.8389,26.05,65,20,3.09,MZ,1692861995
298,geneina,13.45,22.45,26.06,61,66,0.37,SD,1692861997
299,dera ghazi khan,30.0561,70.6348,38.31,34,87,3.8,PK,1692861998
300,den burg,53.0542,4.7972,20.0,84,53,4.63,NL,1692861999
301,nuuk,64.1835,-51.7216,6.34,100,100,5.14,GL,1692862001
302,sanming,26.2486,117.6186,32.71,64,100,1.68,CN,1692862003
303,xifeng,42.7372,124.7222,26.81,56,0,3.53,CN,1692862004
304,karatuzskoye,53.6072,92.8667,26.97,42,54,1.54,RU,1692862005
305,benghazi,32.1167,20.0667,27.89,54,6,1.31,LY,1692861962
306,playa del ingles,27.7567,-15.5787,25.22,77,12,0.45,ES,1692861969
307,sovetskaya gavan',48.9723,140.2878,21.04,83,91,2.76,RU,1692862010
308,chos malal,-37.3781,-70.2709,0.72,80,46,2.77,AR,1692862013
309,revda,56.801,59.9303,11.18,66,100,4.48,RU,1692862014
310,mili,6.0815,171.735,28.25,79,85,7.58,MH,1692862016
311,juneau,58.3019,-134.4197,15.06,93,0,4.63,US,1692862017
312,walvis bay,-22.9575,14.5053,15.06,68,0,3.7,NA,1692862019
313,tuy hoa,13.0833,109.3,35.52,46,79,1.8,VN,1692862020
314,urengoy,65.9667,78.3667,10.04,92,100,6.46,RU,1692862023
315,ouallam,14.3188,2.0866,30.11,59,90,6.92,NE,1692862025
316,xilin hot,43.9667,116.0333,13.53,83,100,6.06,CN,1692862027
317,tralee,52.2704,-9.7026,13.14,94,20,0.0,IE,1692862028
318,vadso,70.0744,29.7487,14.49,76,75,2.57,NO,1692862030
319,woolgoolga,-30.1106,153.2007,17.93,64,4,5.92,AU,1692862031
320,afif,23.9065,42.9172,37.28,10,6,1.64,SA,1692862033
321,inari,68.906,27.0288,12.11,90,97,1.98,FI,1692862036
322,tweed heads,-28.1817,153.547,21.78,70,9,7.72,AU,1692862037
323,nola,40.922,14.5329,31.89,63,0,0.97,IT,1692862039
324,hotan,37.0997,79.9269,28.91,19,100,2.75,CN,1692862040
325,anapolis,-16.3267,-48.9528,18.78,68,0,0.0,BR,1692862041
326,holualoa,19.6228,-155.9522,24.91,84,40,3.6,US,1692862043
327,franklin,39.9667,-83.0166,22.89,88,100,8.23,US,1692861870
328,concepcion,-36.827,-73.0498,6.89,100,75,2.06,CL,1692861976
329,guatire,10.4762,-66.5427,22.68,96,100,1.37,VE,1692862047
330,crane,31.3974,-102.3501,25.42,66,100,4.83,US,1692862049
331,sosnovo-ozerskoye,52.5249,111.5418,20.07,43,100,1.48,RU,1692862050
332,aoulef,26.9667,1.0833,31.06,22,6,7.4,DZ,1692862052
333,kununurra,-15.7667,128.7333,32.99,15,78,4.12,AU,1692862054
334,tangalle,6.024,80.7911,36.09,60,51,7.86,LK,1692862055
335,montmorillon,46.4167,0.6667,31.94,35,2,4.23,FR,1692862056
336,kez,57.8979,53.7152,11.93,63,100,3.56,RU,1692862058
337,siwa oasis,29.2041,25.5195,32.74,28,0,2.8,EG,1692862059
338,happy valley-goose bay,53.3168,-60.3315,12.17,87,100,2.06,CA,1692862061
339,kirkwall,58.9848,-2.9587,13.03,94,75,0.51,GB,1692862063
340,idiroko,6.6333,2.7333,25.93,89,100,2.31,NG,1692862065
341,zhongshu,24.5167,103.7667,21.96,84,100,2.28,CN,1692862066
342,awjilah,29.1081,21.2869,36.1,18,0,4.34,LY,1692862068
343,vorkuta,67.5,64.0,12.99,66,100,7.17,RU,1692862069
344,zapala,-38.8992,-70.0544,0.78,66,64,3.64,AR,1692862071
345,ola,59.5833,151.2833,13.66,79,100,2.89,RU,1692862072
346,roma,43.2128,-75.4557,18.74,80,100,2.06,US,1692862075
347,levin,-40.6333,175.275,7.04,80,100,1.38,NZ,1692862077
348,tual,-5.6667,132.75,25.26,88,100,8.98,ID,1692862078
349,touros,-5.1989,-35.4608,23.26,87,12,4.88,BR,1692862079
350,penon blanco,24.7897,-104.0369,18.45,83,44,0.71,MX,1692862081
351,east ballina,-28.8667,153.5833,17.67,71,64,6.17,AU,1692862082
352,nizhneudinsk,54.9076,99.0276,24.67,37,6,3.48,RU,1692862084
353,sandpoint,48.2766,-116.5533,10.01,85,0,0.0,US,1692862085
354,cockburn town,21.4612,-71.1419,27.0,78,100,4.68,TC,1692862087
355,nar'yan-mar,67.6713,53.087,9.5,89,100,7.28,RU,1692862088
356,esil,51.9556,66.4042,19.05,46,28,6.72,KZ,1692862090
357,labytnangi,66.6572,66.4183,12.6,66,71,2.98,RU,1692862091
358,ko lanta,7.5336,99.0865,28.59,72,14,3.94,TH,1692861978
359,qarqaraly,49.4058,75.4742,28.4,23,100,5.79,KZ,1692862094
360,tottori,35.5,134.2333,31.04,70,40,3.6,JP,1692862045
361,nasir,15.5894,32.5634,35.12,33,4,4.54,SD,1692862097
362,selfoss,63.9331,-20.9971,10.02,96,30,0.66,IS,1692862098
363,mhasvad,17.6333,74.7833,31.23,47,74,6.6,IN,1692862100
364,rypin,53.066,19.4094,23.41,61,23,2.47,PL,1692862101
365,altamont,42.2068,-121.7372,14.38,87,0,0.0,US,1692862103
366,vadamadurai,10.4667,78.0833,34.38,33,100,3.84,IN,1692862104
367,kirkwood,38.5834,-90.4068,28.77,87,20,3.09,US,1692862106
368,siuna,13.7332,-84.7773,22.66,99,100,0.72,NI,1692862108
369,vrangel',42.7297,133.0839,22.99,92,99,3.51,RU,1692862109
370,katutura,-22.521,17.0557,19.95,19,0,4.63,NA,1692862111
371,muisne,0.6,-80.0333,23.98,86,100,0.46,EC,1692862112
372,kodiak,57.79,-152.4072,12.73,88,100,3.09,US,1692862114
373,chuzhou,32.3219,118.2978,30.3,53,0,1.78,CN,1692862115
374,shubarshi,48.5872,57.1869,23.63,24,6,3.81,KZ,1692862116
375,mikhaylovsk,45.1283,42.0256,25.12,44,40,5.0,RU,1692862119
376,vikulovo,56.8167,70.6107,17.49,48,45,3.84,RU,1692862120
377,moree,-29.4667,149.85,20.0,36,0,0.62,AU,1692862122
378,mungaa,-4.9667,34.8833,20.49,47,0,5.24,TZ,1692862002
379,karak city,31.1637,35.762,27.0,41,0,3.56,JO,1692862125
380,pangody,65.85,74.4859,11.95,74,100,7.51,RU,1692862126
381,dawson creek,55.7666,-120.2362,12.8,94,0,4.12,CA,1692862128
382,helensburgh,56.0061,-4.7265,14.67,92,7,0.89,GB,1692862129
383,cam ranh,11.9214,109.1591,35.98,44,20,3.6,VN,1692862132
384,mount gambier,-37.8333,140.7667,14.38,61,100,4.59,AU,1692862134
385,champerico,14.3,-91.9167,25.88,87,100,2.82,GT,1692862135
386,vuktyl,63.8567,57.3094,7.68,95,100,3.99,RU,1692862137
387,vinhais,41.8351,-7.005,24.37,48,0,0.25,PT,1692862138
388,kotagiri,11.4333,76.8833,22.04,40,100,0.77,IN,1692862140
389,arkhangel'sk,64.5401,40.5433,13.26,57,49,4.17,RU,1692862141
390,union de reyes,22.7953,-81.5375,24.1,90,47,2.18,CU,1692862143
391,ulety,51.3572,112.4849,22.3,38,100,1.25,RU,1692862144
392,karasburg,-28.0167,18.75,15.3,34,37,4.01,NA,1692862145
393,salair,54.2312,85.7972,28.63,37,7,3.0,RU,1692862147
394,sarangani,5.4033,125.4636,28.6,74,85,4.2,PH,1692862148
395,oppdal,62.5943,9.6912,9.94,95,100,1.45,NO,1692862150
396,westport,41.1415,-73.3579,21.15,76,0,2.68,US,1692861860
397,lashio,22.9333,97.75,24.5,94,100,1.31,MM,1692862153
398,dubbo,-32.25,148.6167,19.07,45,0,3.09,AU,1692862154
399,plettenberg bay,-34.0527,23.3716,12.53,61,100,1.07,ZA,1692862156
400,xining,36.6167,101.7667,23.81,33,94,2.93,CN,1692862157
401,erenhot,43.6475,111.9767,24.36,21,93,2.12,CN,1692862158
402,la junta,37.985,-103.5438,25.16,36,0,4.12,US,1692861904
403,ndago,-4.6,34.35,23.88,36,0,4.39,TZ,1692862043
404,port augusta,-32.5,137.7667,22.09,22,0,4.91,AU,1692862163
405,riberalta,-10.9833,-66.1,23.19,46,5,1.3,BO,1692862164
406,senador guiomard,-10.1522,-67.7392,23.86,43,9,1.86,BR,1692862166
407,akjoujt,19.6969,-14.4164,30.56,45,68,3.8,MR,1692862167
408,ouesso,1.6136,16.0517,23.01,94,90,2.17,CG,1692862169
409,saipan,15.1355,145.701,29.39,100,100,3.6,MP,1692862170
410,pionerskiy,54.9508,20.2275,19.91,77,21,6.44,RU,1692862172
411,singarayakonda,15.25,80.0333,36.53,38,100,5.14,IN,1692862173
412,saint-philippe,-21.3585,55.7679,23.77,66,31,6.21,RE,1692862174
413,tromso,69.6496,18.957,11.32,87,100,2.06,NO,1692862176
414,northam,51.0333,-4.2167,17.01,94,100,2.09,GB,1692862177
415,nogliki,51.8333,143.1667,15.84,93,69,4.97,RU,1692862179
416,puerto lempira,15.2667,-83.7667,24.65,92,95,2.35,HN,1692862180
417,nova vicosa,-17.8919,-39.3719,22.95,92,16,5.63,BR,1692861952
418,anloga,5.7947,0.8973,24.81,88,100,3.71,GH,1692862183
419,ortona,42.3496,14.4039,32.14,59,0,1.41,IT,1692862185
420,kabalo,-6.05,26.9167,32.06,23,4,3.66,CD,1692862187
421,bontang,0.1333,117.5,28.87,73,15,3.55,ID,1692862188
422,port douglas,-16.4833,145.4667,23.61,70,1,6.53,AU,1692862189
423,swakopmund,-22.6833,14.5333,14.58,75,0,2.62,NA,1692862191
424,chambas,22.1928,-78.9136,24.65,93,9,1.47,CU,1692862193
425,zhanaozen,43.3,52.8,30.76,26,0,6.48,KZ,1692862194
426,khanty-mansiysk,61.0042,69.0019,12.06,58,20,6.0,RU,1692862196
427,la passe,45.5549,-0.8967,30.57,44,4,4.72,FR,1692862197
428,mapimi,25.8167,-103.85,22.41,65,15,3.6,MX,1692862199
429,kodinsk,58.6881,99.1844,25.26,41,34,2.68,RU,1692862200
430,kerman,30.2832,57.0788,31.92,15,0,2.06,IR,1692862202
431,kilindoni,-7.9139,39.6668,25.28,74,9,3.68,TZ,1692862043
432,itoman,26.1247,127.6694,32.01,77,75,5.66,JP,1692862206
433,gargalianoi,37.0667,21.6333,29.09,42,0,2.01,GR,1692862207
434,oudtshoorn,-33.5907,22.2014,12.2,60,100,1.8,ZA,1692862208
435,hirara,24.8,125.2833,31.15,74,75,4.12,JP,1692862210
436,lerwick,60.1545,-1.1494,15.0,86,99,6.73,GB,1692862211
437,hassi messaoud,31.6804,6.0729,29.92,32,0,0.51,DZ,1692862214
438,coquimbo,-29.9533,-71.3436,13.85,88,100,2.06,CL,1692862215
439,howard springs,-12.497,131.047,30.95,43,51,2.6,AU,1692862217
440,san juan de miraflores,-12.1629,-76.9635,19.29,84,77,3.49,PE,1692862218
441,bantilan,14.7519,121.6656,31.12,68,100,2.43,PH,1692862220
442,guiuan,11.0333,125.7247,29.12,72,39,0.37,PH,1692862221
443,massawa,15.6097,39.45,38.27,39,2,3.52,ER,1692862223
444,cutral-co,-38.9469,-69.2089,3.28,10,100,0.89,AR,1692862226
445,airuk,7.2772,168.8203,28.57,74,10,3.9,MH,1692862227
446,frontera,26.9333,-101.45,27.16,71,100,2.24,MX,1692862229
447,palmer,42.1584,-72.3287,15.14,83,1,1.09,US,1692862107
448,colonia,50.9333,6.95,24.42,71,0,2.57,DE,1692862233
449,praia da vitoria,38.7333,-27.0667,21.14,73,75,7.39,PT,1692862235
450,belyy yar,53.6039,91.3903,26.94,50,0,2.0,RU,1692862236
451,port-vila,-17.7338,168.3219,20.78,78,75,2.57,VU,1692862238
452,malanje,-9.5402,16.341,27.48,29,6,1.79,AO,1692862239
453,peterhead,57.5058,-1.7981,14.22,90,96,5.0,GB,1692862241
454,vernon,50.2581,-119.2691,16.2,72,93,0.51,CA,1692861955
455,sitka,57.0531,-135.33,14.94,77,100,4.12,US,1692862244
456,igarka,67.4667,86.5833,16.5,59,93,5.91,RU,1692862245
457,yugorsk,61.3133,63.3319,8.09,89,100,3.96,RU,1692862241
458,shenjiamen,29.9576,122.298,28.26,72,51,2.62,CN,1692862249
459,entebbe,0.0644,32.4469,26.18,61,20,2.57,UG,1692862250
460,fale old settlement,-9.3852,-171.2468,27.98,78,19,7.36,TK,1692862252
461,la ronge,55.1001,-105.2842,11.14,93,40,1.54,CA,1692862253
462,papao,-17.75,-149.55,22.82,72,0,5.97,PF,1692862255
463,hadibu,12.65,54.0333,28.91,68,60,10.66,YE,1692862256
464,moose jaw,50.4001,-105.5344,18.14,82,0,4.12,CA,1692862258
465,glasgow,55.8652,-4.2576,15.11,84,75,3.6,GB,1692862260
466,farkhar,36.5729,69.8578,28.62,25,70,3.44,AF,1692862261
467,taro,-8.3862,115.28,24.0,74,69,2.46,ID,1692862263
468,quellon,-43.1167,-73.6167,3.61,89,72,3.22,CL,1692862264
469,arawa,-6.2132,155.5367,25.92,90,92,2.36,PG,1692862266
470,mar del plata,-38.0023,-57.5575,6.18,81,0,3.58,AR,1692862208
471,nicoya,10.1483,-85.452,23.11,99,100,0.96,CR,1692862251
472,rio grande,-32.035,-52.0986,7.75,78,58,5.72,BR,1692862270
473,grand falls-windsor,48.9332,-55.6649,12.5,95,2,0.82,CA,1692862272
474,newman,37.3138,-121.0208,25.99,75,0,1.96,US,1692862273
475,vallenar,-28.5708,-70.7581,12.44,55,0,0.18,CL,1692862275
476,bantay,17.5847,120.3892,29.27,75,100,4.45,PH,1692862276
477,konarka,19.9,86.1167,32.22,65,97,4.79,IN,1692862278
478,nguigmi,14.2495,13.1092,28.44,61,89,7.59,NE,1692862280
479,malpils,57.0111,24.9631,15.5,98,100,1.37,LV,1692862281
480,general acha,-37.377,-64.6043,6.46,49,65,4.33,AR,1692862283
481,sulejow,51.3544,19.8854,20.66,41,46,3.05,PL,1692862284
482,taoudenni,22.6783,-3.9836,36.82,17,51,5.81,ML,1692862286
483,aripuana,-9.1667,-60.6333,24.4,50,4,0.88,BR,1692862287
484,bima,-8.4667,118.7167,30.56,52,46,4.16,ID,1692862290
485,roxas,11.5853,122.7511,30.64,76,45,0.17,PH,1692862291
486,cabedelo,-6.9811,-34.8339,22.37,86,9,4.0,BR,1692862293
487,kwale,5.7063,6.4374,23.12,99,100,0.73,NG,1692862294
488,edmundston,47.3737,-68.3251,11.63,92,20,2.06,CA,1692862086
489,luderitz,-26.6481,15.1594,17.18,53,56,5.03,NA,1692862298
490,amurzet,47.6967,131.0981,25.46,65,30,3.69,RU,1692862300
491,ancud,-41.8697,-73.8203,3.97,76,63,0.65,CL,1692862301
492,villa gesell,-37.2639,-56.973,2.81,73,2,4.61,AR,1692862303
493,pacific grove,36.6177,-121.9166,18.9,90,0,4.47,US,1692862304
494,stuarts draft,38.0301,-79.0336,20.01,88,75,2.57,US,1692862306
495,namibe,-15.1961,12.1522,19.53,78,99,6.8,AO,1692862307
496,aldan,58.6031,125.3894,12.51,50,67,2.21,RU,1692862309
497,guaruja,-23.9931,-46.2564,27.36,42,23,5.77,BR,1692862310
498,carutapera,-1.195,-46.02,24.87,84,9,3.19,BR,1692862312
499,sheridan,44.8333,-106.9173,14.21,82,0,1.54,US,1692862314
500,dhuusamarreeb,5.535,46.3861,32.47,36,4,8.31,SO,1692862315
501,puerto aysen,-45.4,-72.7,2.88,99,100,1.93,CL,1692862317
502,guiset east,16.0667,120.6833,28.47,80,100,2.43,PH,1692862318
503,maceio,-9.6658,-35.7353,21.69,100,20,1.54,BR,1692862320
504,anshun,26.25,105.9333,21.78,88,100,4.71,CN,1692862323
505,severnoye,56.3491,78.3619,25.11,53,100,2.93,RU,1692862325
506,gryazovets,58.88,40.2525,13.38,50,94,2.41,RU,1692862148
507,nevel'sk,46.6733,141.8633,20.21,99,100,1.33,RU,1692862328
508,loei,17.4167,101.5,20.65,83,91,2.27,TH,1692862330
509,antalaha,-14.9003,50.2788,24.8,72,79,4.09,MG,1692862331
510,togur,58.3631,82.8265,26.65,53,12,6.04,RU,1692862333
511,boyolangu,-8.1181,111.8935,29.99,100,36,5.08,ID,1692862334
512,hagere hiywet,8.9833,37.85,20.97,70,8,1.2,ET,1692862336
513,merizo village,13.2658,144.6691,28.88,91,100,5.5,GU,1692862338
514,kone,-21.0595,164.8658,18.79,78,55,3.52,NC,1692862339
515,kostomuksha,64.571,30.5767,14.36,49,25,2.62,RU,1692862341
516,smithers,54.7804,-127.1743,14.18,94,100,1.03,CA,1692862342
517,oltinko'l,40.8011,72.1634,37.57,14,47,2.9,UZ,1692862344
518,silver city,32.7701,-108.2803,15.98,92,100,0.45,US,1692862346
519,nyurba,63.2842,118.3319,19.37,31,4,1.56,RU,1692862348
520,karimnagar,18.4333,79.15,29.81,67,93,5.12,IN,1692862113
521,alo,7.4178,6.7371,23.42,97,100,2.21,NG,1692862351
522,puerto armuelles,8.2833,-82.8667,25.05,87,100,1.79,PA,1692862214
523,zaida,34.0603,72.4678,34.78,44,2,0.36,PK,1692862354
524,effingham,32.3669,-81.3332,23.97,86,49,1.95,US,1692862355
525,kimbe,-5.5502,150.1429,26.89,80,91,2.43,PG,1692862357
526,saint-jean-de-monts,46.7833,-2.0667,23.06,78,96,4.58,FR,1692862359
527,dalnegorsk,44.5604,135.5701,24.31,93,98,1.51,RU,1692862360
528,ilomantsi,62.6716,30.9328,12.05,91,100,2.02,FI,1692862109
529,dolinsk,47.35,142.8,21.2,93,100,0.92,RU,1692862363
530,cape coast,5.1053,-1.2466,24.77,88,98,2.58,GH,1692862364
531,katsuura,35.1333,140.3,28.08,83,0,4.86,JP,1692862367
532,lijiang,26.8688,100.2207,17.62,83,100,0.89,CN,1692862369
533,guerrero negro,27.9769,-114.0611,20.28,87,6,5.44,MX,1692862370
534,chicoana,-25.1009,-65.5331,10.59,59,100,0.51,AR,1692862371
535,arno,60.1167,18.6333,15.44,71,18,2.46,SE,1692862373
536,menongue,-14.6585,17.691,29.19,9,0,2.83,AO,1692862374
537,south kingstown,41.4562,-71.5395,16.62,69,3,1.63,US,1692862376
538,shancheng,34.7953,116.0817,30.16,53,4,2.11,CN,1692862378
539,jianjiang,26.5497,119.755,28.51,83,100,1.92,CN,1692862379
540,tazacorte,28.629,-17.9293,23.54,69,0,2.57,ES,1692862381
541,masterton,-40.9597,175.6575,6.6,96,100,0.49,NZ,1692862382
542,santa ana,33.7456,-117.8678,23.29,87,100,2.06,US,1692862218
543,tarakan,3.3,117.6333,31.72,70,20,2.57,ID,1692862387
544,port alfred,-33.5906,26.891,15.1,70,91,1.79,ZA,1692862388
545,yamada,39.4667,141.95,28.7,82,1,5.4,JP,1692862389
546,nidzica,53.3605,20.4275,20.99,58,56,2.68,PL,1692862391
547,sohagpur,22.7,78.2,27.87,76,99,6.06,IN,1692862392
548,alvaraes,-3.2208,-64.8042,23.36,82,79,0.98,BR,1692862394
549,ledbury,52.0364,-2.4263,19.9,92,100,0.89,GB,1692862396
550,vila velha,-20.3297,-40.2925,22.97,88,20,5.14,BR,1692862397
551,haiku-pauwela,20.9219,-156.3051,24.47,69,20,6.17,US,1692862399
552,cartersville,34.1651,-84.7999,25.55,86,40,0.0,US,1692862294
553,angaur state,6.906,134.13,28.44,76,84,3.91,PW,1692862402
554,beaufort west,-32.3567,22.583,12.84,28,96,1.93,ZA,1692862404
555,puerto maldonado,-12.6,-69.1833,24.48,54,42,1.3,PE,1692862405
556,ondjiva,-17.0667,15.7333,19.02,16,0,2.06,AO,1692862407
557,mahina,-17.5065,-149.489,22.87,73,20,1.54,PF,1692862408
